{
  "generatedAt": "2026-04-27T17:05:09.971Z",
  "count": 412,
  "orders": [
    {
      "id": "9864",
      "sourceFile": "2026-04-26-1033.results.json",
      "date": "2026-04-26",
      "day": "sunday",
      "hour": 10,
      "slot": "h10",
      "fromAddr": "Немига 8",
      "fromLat": 53.9028,
      "fromLng": 27.5479,
      "toAddr": "пр. Независимости 168 (восток)",
      "toLat": 53.928,
      "toLng": 27.685,
      "km": 13.460600000000001,
      "min": 21.654999999999998,
      "freeMin": 21.654999999999998,
      "ttMult": 1,
      "factC": 12.8,
      "factE": 10.3,
      "sC": 0.3415453646957365,
      "sE": 0.28237187992780055,
      "hb": 0.8267478031193594,
      "yaSurgeC": 1.3,
      "bazaYC": 9.846153846153847,
      "yaMin": 16,
      "spdYa": 50.477250000000005,
      "spdTT": 37.29558993304087,
      "notes": "⚡ Эконом. Открытые сёрджи: Cmf 1.3, Ele 1.5, Cp 1.6, Biz 2.4. Координаты Б приблизительные (восточная часть пр. Независимости)."
    },
    {
      "id": "9865",
      "sourceFile": "2026-04-26-1033.results.json",
      "date": "2026-04-26",
      "day": "sunday",
      "hour": 10,
      "slot": "h10",
      "fromAddr": "Немига 8",
      "fromLat": 53.9028,
      "fromLng": 27.5479,
      "toAddr": "Советская 16",
      "toLat": 53.905,
      "toLng": 27.555,
      "km": 2.2025,
      "min": 5.205,
      "freeMin": 5.205,
      "ttMult": 1,
      "factC": 5.8,
      "factE": 4.6,
      "sC": 0.5366891829369852,
      "sE": 0.4690527174467216,
      "hb": 0.8739746064563313,
      "yaSurgeC": 0.6,
      "bazaYC": 9.666666666666666,
      "yaMin": 7,
      "spdYa": 18.87857142857143,
      "spdTT": 25.389048991354468,
      "notes": "⚡ Эконом. Открытые сёрджи: Cmf 0.6, Ele 0.7, Cp 0.7, Biz 1.1. Очень короткий маршрут (~1.5 км)."
    },
    {
      "id": "9866",
      "sourceFile": "2026-04-26-1033.results.json",
      "date": "2026-04-26",
      "day": "sunday",
      "hour": 10,
      "slot": "h10",
      "fromAddr": "Немига 8",
      "fromLat": 53.9028,
      "fromLng": 27.5479,
      "toAddr": "Обойная 12к6",
      "toLat": 53.91,
      "toLng": 27.572,
      "km": 3.7291999999999996,
      "min": 6.943333333333333,
      "freeMin": 6.943333333333333,
      "ttMult": 1,
      "factC": 4.6,
      "factE": 3.7,
      "sC": 0.3278757075462732,
      "sE": 0.2839664847916761,
      "hb": 0.8660796706068863,
      "yaSurgeC": 0.5,
      "bazaYC": 9.2,
      "yaMin": 4,
      "spdYa": 55.937999999999995,
      "spdTT": 32.22544407105136,
      "notes": "⚡ Эконом. Открытые сёрджи: Cmf 0.5, Ele 0.6, Cp 0.6, Biz 0.9. Самый короткий, скорее всего на минимум-цену упёрлось."
    },
    {
      "id": "9867",
      "sourceFile": "2026-04-26-1033.results.json",
      "date": "2026-04-26",
      "day": "sunday",
      "hour": 10,
      "slot": "h10",
      "fromAddr": "Немига 8",
      "fromLat": 53.9028,
      "fromLng": 27.5479,
      "toAddr": "Скрыганова 4Д",
      "toLat": 53.918,
      "toLng": 27.5,
      "km": 4.0664,
      "min": 7.316666666666666,
      "freeMin": 7.316666666666666,
      "ttMult": 1,
      "factC": 6.8,
      "factE": 5.4,
      "sC": 0.4615484861209655,
      "sE": 0.3932130457408717,
      "hb": 0.851943094961893,
      "yaSurgeC": 0.7,
      "bazaYC": 9.714285714285715,
      "yaMin": 8,
      "spdYa": 30.497999999999998,
      "spdTT": 33.34633257403189,
      "notes": "⚡ Эконом. Открытые сёрджи: Cmf 0.7, Ele 0.8, Cp 0.9, Biz 1.3."
    },
    {
      "id": "9868",
      "sourceFile": "2026-04-26-1033.results.json",
      "date": "2026-04-26",
      "day": "sunday",
      "hour": 10,
      "slot": "h10",
      "fromAddr": "Немига 8",
      "fromLat": 53.9028,
      "fromLng": 27.5479,
      "toAddr": "Смоленская 33",
      "toLat": 53.892,
      "toLng": 27.624,
      "km": 8.577399999999999,
      "min": 16.703333333333333,
      "freeMin": 16.703333333333333,
      "ttMult": 1,
      "factC": 9.9,
      "factE": 7.9,
      "sC": 0.3579752054560725,
      "sE": 0.29637358778610684,
      "hb": 0.8279165240187988,
      "yaSurgeC": 1,
      "bazaYC": 9.9,
      "yaMin": 13,
      "spdYa": 39.587999999999994,
      "spdTT": 30.8108561165436,
      "notes": "⚡ Эконом. Открытые сёрджи: Cmf 1.0, Ele 1.2, Cp 1.2, Biz 1.8. Тот же маршрут что 9869 (повтор через 2 мин)."
    },
    {
      "id": "9869",
      "sourceFile": "2026-04-26-1033.results.json",
      "date": "2026-04-26",
      "day": "sunday",
      "hour": 10,
      "slot": "h10",
      "fromAddr": "Немига 8",
      "fromLat": 53.9028,
      "fromLng": 27.5479,
      "toAddr": "Смоленская 33",
      "toLat": 53.892,
      "toLng": 27.624,
      "km": 8.577399999999999,
      "min": 16.703333333333333,
      "freeMin": 16.703333333333333,
      "ttMult": 1,
      "factC": 9.8,
      "factE": 7.9,
      "sC": 0.3543592942898495,
      "sE": 0.29637358778610684,
      "hb": 0.8363646518149089,
      "yaSurgeC": 1,
      "bazaYC": 9.8,
      "yaMin": 13,
      "spdYa": 39.587999999999994,
      "spdTT": 30.8108561165436,
      "notes": "⚡ Эконом. Открытые сёрджи: Cmf 1.0, Ele 1.2, Cp 1.2, Biz 1.8. Повтор 9868 через 2 мин — видим стабильность ±0.1 br."
    },
    {
      "id": "9870",
      "sourceFile": "2026-04-26-1033.results.json",
      "date": "2026-04-26",
      "day": "sunday",
      "hour": 10,
      "slot": "h10",
      "fromAddr": "Немига 8",
      "fromLat": 53.9028,
      "fromLng": 27.5479,
      "toAddr": "Московская 30",
      "toLat": 53.87,
      "toLng": 27.553,
      "km": 6.6084,
      "min": 10.899668508287292,
      "freeMin": 10.606666666666666,
      "ttMult": 1.0276243093922652,
      "factC": 6,
      "factE": 4.8,
      "sC": 0.29055950652272383,
      "sE": 0.2442771113741226,
      "hb": 0.840712851895687,
      "yaSurgeC": 0.6,
      "bazaYC": 10,
      "yaMin": 7,
      "spdYa": 56.64342857142857,
      "spdTT": 36.377620080695856,
      "notes": "⚡ Эконом 'через 2 мин'. Открытые сёрджи: Cmf 0.6, Ele 0.8, Cp 0.8, Biz 1.1."
    },
    {
      "id": "9871",
      "sourceFile": "2026-04-26-1033.results.json",
      "date": "2026-04-26",
      "day": "sunday",
      "hour": 10,
      "slot": "h10",
      "fromAddr": "Космонавтов 29",
      "fromLat": 53.857,
      "fromLng": 27.487,
      "toAddr": "Московская 30",
      "toLat": 53.87,
      "toLng": 27.553,
      "km": 7.857399999999999,
      "min": 10.831666666666667,
      "freeMin": 10.831666666666667,
      "ttMult": 1,
      "factC": 20,
      "factE": 17.3,
      "sC": 0.905214397012551,
      "sE": 0.8201301336353856,
      "hb": 0.9060065066817693,
      "yaSurgeC": 2,
      "bazaYC": 10,
      "yaMin": 15,
      "spdYa": 31.4296,
      "spdTT": 43.52460378519771,
      "notes": "⚡ Эконом + есть тариф 'Чуть пройти' 16.5. Открытые сёрджи: Cmf 2.0, Ele 2.0, Cp 2.2. Точка А — Малиновка, точка Б — район Института культуры."
    },
    {
      "id": "9873",
      "sourceFile": "2026-04-26-1112.results.json",
      "date": "2026-04-26",
      "day": "sunday",
      "hour": 11,
      "slot": "h11",
      "fromAddr": "пр. Независимости 1",
      "fromLat": 53.8964,
      "fromLng": 27.5482,
      "toAddr": "Уручье",
      "toLat": 53.94,
      "toLng": 27.708,
      "km": 14.0797,
      "min": 19.95,
      "freeMin": 19.95,
      "ttMult": 1,
      "factC": 14.8,
      "factE": 12.9,
      "sC": 0.40156676155942483,
      "sE": 0.3597760352346242,
      "hb": 0.8959308131915287,
      "yaSurgeC": 1.5,
      "bazaYC": 9.866666666666667,
      "yaMin": 19,
      "spdYa": 44.46221052631579,
      "spdTT": 42.34496240601504,
      "notes": "⚡ Эконом 12.9. Открытые сёрджи: Cmf 1.5, Ele 1.7, Cp 1.8. Длинный маршрут ~15 км — критично для perKm. Эконом подождать 9 мин 12.1, ехать 5 мин."
    },
    {
      "id": "9874",
      "sourceFile": "2026-04-26-1112.results.json",
      "date": "2026-04-26",
      "day": "sunday",
      "hour": 11,
      "slot": "h11",
      "fromAddr": "Площадь Победы",
      "fromLat": 53.9046,
      "fromLng": 27.5648,
      "toAddr": "Минская ОКБ (Боровляны)",
      "toLat": 53.998,
      "toLng": 27.585,
      "km": 14.5451,
      "min": 17.386666666666667,
      "freeMin": 17.386666666666667,
      "ttMult": 1,
      "factC": 18.7,
      "factE": 15,
      "sC": 0.5287945106416831,
      "sE": 0.43651026148322697,
      "hb": 0.8254818321648786,
      "yaSurgeC": 1.9,
      "bazaYC": 9.842105263157896,
      "yaMin": 25,
      "spdYa": 34.90824,
      "spdTT": 50.19398006134969,
      "notes": "Эконом 15р (без молнии — обычный). Открытые сёрджи: Cmf 1.9, Ele 2.1, Cp 2.3, Biz 3.4. Самый длинный ~18 км, выезд за МКАД на север."
    },
    {
      "id": "9875",
      "sourceFile": "2026-04-26-1112.results.json",
      "date": "2026-04-26",
      "day": "sunday",
      "hour": 11,
      "slot": "h11",
      "fromAddr": "Немига 3",
      "fromLat": 53.9035,
      "fromLng": 27.5478,
      "toAddr": "Dana Mall",
      "toLat": 53.917,
      "toLng": 27.611,
      "km": 6.9738999999999995,
      "min": 11.695,
      "freeMin": 11.695,
      "ttMult": 1,
      "factC": 12.4,
      "factE": 10,
      "sC": 0.5707794084884105,
      "sE": 0.4825164972390406,
      "hb": 0.8453642336483097,
      "yaSurgeC": 1.3,
      "bazaYC": 9.538461538461538,
      "yaMin": 16,
      "spdYa": 26.152124999999998,
      "spdTT": 35.778879863189395,
      "notes": "Эконом 10р. Открытые сёрджи: Cmf 1.3, Ele 1.4. Средний маршрут ~9 км. Также показан 'Чуть пройти' 9.3р."
    },
    {
      "id": "9876",
      "sourceFile": "2026-04-26-1124.results.json",
      "date": "2026-04-26",
      "day": "sunday",
      "hour": 11,
      "slot": "h11",
      "fromAddr": "Немига 3",
      "fromLat": 53.9035,
      "fromLng": 27.5478,
      "toAddr": "Аэропорт MSQ",
      "toLat": 53.882,
      "toLng": 28.032,
      "km": 44.5689,
      "min": 48.905,
      "freeMin": 48.905,
      "ttMult": 1,
      "factC": 59.6,
      "factE": 47.8,
      "sC": 0.6169345639452676,
      "sE": 0.49996506520255696,
      "hb": 0.8104020984094388,
      "yaSurgeC": 6,
      "bazaYC": 9.933333333333334,
      "yaMin": 39,
      "spdYa": 68.56753846153846,
      "spdTT": 54.680175851139964,
      "notes": "⚡ Эконом нет молнии (47.8). Открытые сёрджи: Cmf 6.0, Ele 6.3, Cp 7.2, Biz 10.9. ОЧЕНЬ длинный ~40 км в аэропорт. Идеальный для калибровки perKm."
    },
    {
      "id": "9877",
      "sourceFile": "2026-04-26-1124.results.json",
      "date": "2026-04-26",
      "day": "sunday",
      "hour": 11,
      "slot": "h11",
      "fromAddr": "Немига 3",
      "fromLat": 53.9035,
      "fromLng": 27.5478,
      "toAddr": "Вишнёвая 12 (Гатово)",
      "toLat": 53.787,
      "toLng": 27.58,
      "km": 20.0359,
      "min": 24.621666666666666,
      "freeMin": 24.621666666666666,
      "ttMult": 1,
      "factC": 36.1,
      "factE": 29,
      "sC": 0.7561727576161189,
      "sE": 0.6204480861815228,
      "hb": 0.8205110273180477,
      "yaSurgeC": 3.7,
      "bazaYC": 9.756756756756756,
      "yaMin": 33,
      "spdYa": 36.428909090909094,
      "spdTT": 48.82504569146416,
      "notes": "Эконом 29 без молнии (базовая цена!), а Cmf с ⚡3.7. Открытые сёрджи: Cmf 3.7, Ele 3.9, Cp 4.4, Biz 6.6. Длинный ~25 км на юг за МКАД (Гатово)."
    },
    {
      "id": "9878",
      "sourceFile": "2026-04-26-1124.results.json",
      "date": "2026-04-26",
      "day": "sunday",
      "hour": 11,
      "slot": "h11",
      "fromAddr": "Юрия Семеняко 38",
      "fromLat": 53.835,
      "fromLng": 27.49,
      "toAddr": "Вишнёвая 12 (Гатово)",
      "toLat": 53.787,
      "toLng": 27.58,
      "km": 14.037,
      "min": 21.673333333333336,
      "freeMin": 21.673333333333336,
      "ttMult": 1,
      "factC": 59.8,
      "factE": 52.6,
      "sC": 1.5661392659224158,
      "sE": 1.4146224266960228,
      "hb": 0.9032545556303683,
      "yaSurgeC": 6,
      "bazaYC": 9.966666666666667,
      "yaMin": 33,
      "spdYa": 25.521818181818183,
      "spdTT": 38.859735466010456,
      "notes": "⚡ Эконом 52.6. Открытые сёрджи: Cmf 6.0, Ele 6.1, Cp 6.2, Biz 7.1. Юрия Семеняко (Курасовщина) → Гатово ~20 км."
    },
    {
      "id": "9879",
      "sourceFile": "2026-04-26-1124.results.json",
      "date": "2026-04-26",
      "day": "sunday",
      "hour": 11,
      "slot": "h11",
      "fromAddr": "Ермака 43",
      "fromLat": 53.913,
      "fromLng": 27.42,
      "toAddr": "Вишнёвая 12 (Гатово)",
      "toLat": 53.787,
      "toLng": 27.58,
      "km": 25.8883,
      "min": 25.12,
      "freeMin": 25.12,
      "ttMult": 1,
      "factC": 51,
      "factE": 46.2,
      "sC": 0.9245501791451934,
      "sE": 0.8529971958178766,
      "hb": 0.9226077881532918,
      "yaSurgeC": 5.1,
      "bazaYC": 10,
      "yaMin": 37,
      "spdYa": 41.98102702702703,
      "spdTT": 61.83511146496815,
      "notes": "⚡ Эконом 46.2. Открытые сёрджи: Cmf 5.1, Ele 5.4, Cp 6.0, Biz 10.0. Ермака (Сухарево/Каменная Горка, запад) → Гатово (юг) ~28 км через весь юг города."
    },
    {
      "id": "9880",
      "sourceFile": "2026-04-26-1124.results.json",
      "date": "2026-04-26",
      "day": "sunday",
      "hour": 11,
      "slot": "h11",
      "fromAddr": "Ермака 43",
      "fromLat": 53.913,
      "fromLng": 27.42,
      "toAddr": "Жилуновича 2к11",
      "toLat": 53.87,
      "toLng": 27.625,
      "km": 17.3708,
      "min": 24.703333333333333,
      "freeMin": 24.703333333333333,
      "ttMult": 1,
      "factC": 21.7,
      "factE": 19.3,
      "sC": 0.4864638991478887,
      "sE": 0.4425831322472033,
      "hb": 0.9097964577072444,
      "yaSurgeC": 2.2,
      "bazaYC": 9.863636363636363,
      "yaMin": 28,
      "spdYa": 37.223142857142854,
      "spdTT": 42.190581567939546,
      "notes": "⚡ Эконом 19.3. Открытые сёрджи: Cmf 2.2, Ele 2.3, Cp 2.4, Biz 4.6. Ермака (запад) → Жилуновича (восток, Серебрянка/Партизанский) ~20 км через МКАД."
    },
    {
      "id": "9890",
      "sourceFile": "2026-04-26-1208.results.json",
      "date": "2026-04-26",
      "day": "sunday",
      "hour": 12,
      "slot": "h12",
      "fromAddr": "Куйбышева 63",
      "fromLat": 53.9248,
      "fromLng": 27.5783,
      "toAddr": "пр. Мира 1",
      "toLat": 53.892,
      "toLng": 27.545,
      "km": 4.9888,
      "min": 8.111666666666666,
      "freeMin": 8.111666666666666,
      "ttMult": 1,
      "factC": 15.8,
      "factE": 14,
      "sC": 1.58,
      "sE": 1.5555555555555556,
      "hb": 0.9845288326300984,
      "yaSurgeC": null,
      "bazaYC": null,
      "yaMin": 17,
      "spdYa": 17.607529411764705,
      "spdTT": 36.900924594205875,
      "notes": "⚡ Эконом 14.0. Cmf 15.8 (без молнии). Электро 16.2, Кмф+ 16.8, Biz 21.5. Куйбышева (Якуба Коласа) → пр. Мира (центр-юг)."
    },
    {
      "id": "9889",
      "sourceFile": "2026-04-26-1208.results.json",
      "date": "2026-04-26",
      "day": "sunday",
      "hour": 12,
      "slot": "h12",
      "fromAddr": "Куйбышева 63",
      "fromLat": 53.9248,
      "fromLng": 27.5783,
      "toAddr": "Янки Купалы 25",
      "toLat": 53.9085,
      "toLng": 27.568,
      "km": 2.1855,
      "min": 4.216666666666667,
      "freeMin": 4.216666666666667,
      "ttMult": 1,
      "factC": 10.6,
      "factE": 9.3,
      "sC": 1.06,
      "sE": 1.0333333333333334,
      "hb": 0.9748427672955975,
      "yaSurgeC": null,
      "bazaYC": null,
      "yaMin": 9,
      "spdYa": 14.57,
      "spdTT": 31.098023715415025,
      "notes": "⚡ Эконом 9.3. Cmf 10.6 (близко к минимуму 10!). Электро 10.8, Кмф+ 11.5, Biz 12.6. Короткий ~2.5 км в центр."
    },
    {
      "id": "9888",
      "sourceFile": "2026-04-26-1208.results.json",
      "date": "2026-04-26",
      "day": "sunday",
      "hour": 12,
      "slot": "h12",
      "fromAddr": "Куйбышева 63",
      "fromLat": 53.9248,
      "fromLng": 27.5783,
      "toAddr": "Мержинского 4",
      "toLat": 53.9115,
      "toLng": 27.47,
      "km": 8.668299999999999,
      "min": 12.445,
      "freeMin": 12.445,
      "ttMult": 1,
      "factC": 12.7,
      "factE": 11.2,
      "sC": 1.27,
      "sE": 1.2444444444444445,
      "hb": 0.9798775153105862,
      "yaSurgeC": null,
      "bazaYC": null,
      "yaMin": 12,
      "spdYa": 43.341499999999996,
      "spdTT": 41.79172358376858,
      "notes": "⚡ Эконом 11.2. Cmf 12.7. Электро 13, Кмф+ 13.8, Biz 14.6. Куйбышева → Каменная Горка (запад)."
    },
    {
      "id": "9887",
      "sourceFile": "2026-04-26-1208.results.json",
      "date": "2026-04-26",
      "day": "sunday",
      "hour": 12,
      "slot": "h12",
      "fromAddr": "Куйбышева 63",
      "fromLat": 53.9248,
      "fromLng": 27.5783,
      "toAddr": "Карла Либкнехта 66",
      "toLat": 53.892,
      "toLng": 27.519,
      "km": 6.7307,
      "min": 11.34,
      "freeMin": 11.34,
      "ttMult": 1,
      "factC": 12.3,
      "factE": 11.1,
      "sC": 1.23,
      "sE": 1.2333333333333334,
      "hb": 1.0027100271002711,
      "yaSurgeC": null,
      "bazaYC": null,
      "yaMin": 12,
      "spdYa": 33.6535,
      "spdTT": 35.612169312169314,
      "notes": "⚡ Эконом 11.1. Cmf 12.3. Электро 12.6, Кмф+ 13.1, Biz 16.0. Куйбышева → Сторожовка (запад центра)."
    },
    {
      "id": "9886",
      "sourceFile": "2026-04-26-1208.results.json",
      "date": "2026-04-26",
      "day": "sunday",
      "hour": 12,
      "slot": "h12",
      "fromAddr": "Куйбышева 63",
      "fromLat": 53.9248,
      "fromLng": 27.5783,
      "toAddr": "Жилуновича 15",
      "toLat": 53.872,
      "toLng": 27.625,
      "km": 7.7943,
      "min": 12.366666666666667,
      "freeMin": 12.366666666666667,
      "ttMult": 1,
      "factC": 15.4,
      "factE": 13.6,
      "sC": 1.54,
      "sE": 1.511111111111111,
      "hb": 0.9812409812409812,
      "yaSurgeC": null,
      "bazaYC": null,
      "yaMin": 16,
      "spdYa": 29.228625,
      "spdTT": 37.81601078167115,
      "notes": "⚡ Эконом 13.6. Cmf 15.4. Электро 15.7, Кмф+ 16.2, Biz 20.7. Куйбышева → Серебрянка (восток через МКАД)."
    },
    {
      "id": "9885",
      "sourceFile": "2026-04-26-1208.results.json",
      "date": "2026-04-26",
      "day": "sunday",
      "hour": 12,
      "slot": "h12",
      "fromAddr": "Куйбышева 63",
      "fromLat": 53.9248,
      "fromLng": 27.5783,
      "toAddr": "Героев 120-й Дивизии 27",
      "toLat": 53.94,
      "toLng": 27.69,
      "km": 9.4322,
      "min": 14.354999999999999,
      "freeMin": 14.354999999999999,
      "ttMult": 1,
      "factC": 21.1,
      "factE": 19.1,
      "sC": 2.1100000000000003,
      "sE": 2.1222222222222222,
      "hb": 1.0057925223802,
      "yaSurgeC": null,
      "bazaYC": null,
      "yaMin": 20,
      "spdYa": 28.296599999999998,
      "spdTT": 39.424033437826544,
      "notes": "⚡ Эконом 19.1. Cmf 21.1. Электро 21.5, Кмф+ 22.4, Biz 28.5. Куйбышева → Уручье (за МКАД)."
    },
    {
      "id": "9884",
      "sourceFile": "2026-04-26-1208.results.json",
      "date": "2026-04-26",
      "day": "sunday",
      "hour": 12,
      "slot": "h12",
      "fromAddr": "Куйбышева 63",
      "fromLat": 53.9248,
      "fromLng": 27.5783,
      "toAddr": "Василя Быкова 39",
      "toLat": 53.9085,
      "toLng": 27.4795,
      "km": 7.8492,
      "min": 11.175,
      "freeMin": 11.175,
      "ttMult": 1,
      "factC": 24,
      "factE": 21.5,
      "sC": 2.4,
      "sE": 2.388888888888889,
      "hb": 0.9953703703703703,
      "yaSurgeC": null,
      "bazaYC": null,
      "yaMin": 22,
      "spdYa": 21.40690909090909,
      "spdTT": 42.14335570469798,
      "notes": "⚡ Эконом 21.5. Cmf 24. Электро 24.5, Кмф+ 25.3, Biz 32.8. Куйбышева → Каменная Горка/Сухарево (запад)."
    },
    {
      "id": "9883",
      "sourceFile": "2026-04-26-1208.results.json",
      "date": "2026-04-26",
      "day": "sunday",
      "hour": 12,
      "slot": "h12",
      "fromAddr": "Боровлянский сельсовет 74А",
      "fromLat": 54.025,
      "fromLng": 27.668,
      "toAddr": "Василя Быкова 39",
      "toLat": 53.9085,
      "toLng": 27.4795,
      "km": 21.508599999999998,
      "min": 23.926666666666666,
      "freeMin": 23.926666666666666,
      "ttMult": 1,
      "factC": 20.8,
      "factE": 18.5,
      "sC": 2.08,
      "sE": 2.0555555555555554,
      "hb": 0.9882478632478631,
      "yaSurgeC": null,
      "bazaYC": null,
      "yaMin": 17,
      "spdYa": 75.91270588235294,
      "spdTT": 53.93630537754249,
      "notes": "⚡ Эконом 18.5. Cmf 20.8. Электро 21.2, Кмф+ 22.6, Biz —. Боровляны (за МКАД север) → Каменная Горка (запад). Длинный пригородный."
    },
    {
      "id": "9882",
      "sourceFile": "2026-04-26-1208.results.json",
      "date": "2026-04-26",
      "day": "sunday",
      "hour": 12,
      "slot": "h12",
      "fromAddr": "ул. Лейтенанта Кижеватова",
      "fromLat": 53.835,
      "fromLng": 27.58,
      "toAddr": "Василя Быкова 39",
      "toLat": 53.9085,
      "toLng": 27.4795,
      "km": 13.4661,
      "min": 18.78851351351351,
      "freeMin": 17.825,
      "ttMult": 1.054054054054054,
      "factC": 32.4,
      "factE": 28.8,
      "sC": 3.2399999999999998,
      "sE": 3.2,
      "hb": 0.9876543209876545,
      "yaSurgeC": null,
      "bazaYC": null,
      "yaMin": 29,
      "spdYa": 27.86089655172414,
      "spdTT": 43.00318912504047,
      "notes": "⚡ Эконом 28.8. Cmf 32.4. Электро 32.5, Кмф+ 33.8, Biz —. Лошица (юг) → Каменная Горка (запад) через всю западную часть города. Самый длинный в наборе."
    },
    {
      "id": "9907",
      "sourceFile": "2026-04-26-1330.results.json",
      "date": "2026-04-26",
      "day": "sunday",
      "hour": 13,
      "slot": "h13",
      "fromAddr": "ул. Михаила Киреенко 5",
      "fromLat": 53.847,
      "fromLng": 27.483,
      "toAddr": "К.Либкнехта 54",
      "toLat": 53.88,
      "toLng": 27.546,
      "km": 9.285200000000001,
      "min": 14.999337748344372,
      "freeMin": 13.726666666666667,
      "ttMult": 1.0927152317880795,
      "factC": 16.1,
      "factE": 13.7,
      "sC": 1.61,
      "sE": 1.5222222222222221,
      "hb": 0.9454796411318149,
      "yaSurgeC": null,
      "bazaYC": null,
      "yaMin": 12,
      "spdYa": 46.42600000000001,
      "spdTT": 37.142439842818675,
      "notes": "⚡ Эконом 13.7. Cmf 16.1 (без молнии). Электро 15.4, Кмф+ 17.1, Biz 17.5. Брилевичи → Привокзальная."
    },
    {
      "id": "9908",
      "sourceFile": "2026-04-26-1330.results.json",
      "date": "2026-04-26",
      "day": "sunday",
      "hour": 13,
      "slot": "h13",
      "fromAddr": "ул. Михаила Киреенко 5",
      "fromLat": 53.847,
      "fromLng": 27.483,
      "toAddr": "Луговая 10",
      "toLat": 53.93,
      "toLng": 28.05,
      "km": 56.1933,
      "min": 54.20333333333333,
      "freeMin": 54.20333333333333,
      "ttMult": 1,
      "factC": 66.6,
      "factE": 58.9,
      "sC": 6.659999999999999,
      "sE": 6.544444444444444,
      "hb": 0.9826493159826494,
      "yaSurgeC": null,
      "bazaYC": null,
      "yaMin": 42,
      "spdYa": 80.27614285714286,
      "spdTT": 62.20277965684768,
      "notes": "⚡ Эконом 58.9. Cmf 66.6 (без молнии). Электро 70.0, Кмф+ 70.1, Biz —. МЕЖДУГОРОДНИЙ Брилевичи → за МКАД на восток (д.Луговая). Возможна другая тарификация вне МКАД — sC=6.66 завышен."
    },
    {
      "id": "9906",
      "sourceFile": "2026-04-26-1330.results.json",
      "date": "2026-04-26",
      "day": "sunday",
      "hour": 13,
      "slot": "h13",
      "fromAddr": "ул. Михаила Киреенко 5",
      "fromLat": 53.847,
      "fromLng": 27.483,
      "toAddr": "Нижняя Луговая 15",
      "toLat": 53.91,
      "toLng": 28,
      "km": 51.3506,
      "min": 40.03,
      "freeMin": 40.03,
      "ttMult": 1,
      "factC": 34.5,
      "factE": 30.2,
      "sC": 3.45,
      "sE": 3.3555555555555556,
      "hb": 0.9726247987117552,
      "yaSurgeC": null,
      "bazaYC": null,
      "yaMin": 39,
      "spdYa": 79.00092307692307,
      "spdTT": 76.96817386959779,
      "notes": "⚡ Эконом 30.2. Cmf 34.5 (без молнии). Электро 34.2, Кмф+ 36.6, Biz —. Дальний восточный пригород за МКАД."
    },
    {
      "id": "9905",
      "sourceFile": "2026-04-26-1330.results.json",
      "date": "2026-04-26",
      "day": "sunday",
      "hour": 13,
      "slot": "h13",
      "fromAddr": "ул. Михаила Киреенко 5",
      "fromLat": 53.847,
      "fromLng": 27.483,
      "toAddr": "Партизанский пр. 79",
      "toLat": 53.892,
      "toLng": 27.633,
      "km": 15.3946,
      "min": 25.225158227848098,
      "freeMin": 24.154999999999998,
      "ttMult": 1.0443037974683544,
      "factC": 24.2,
      "factE": 20.5,
      "sC": 2.42,
      "sE": 2.2777777777777777,
      "hb": 0.9412304866850322,
      "yaSurgeC": null,
      "bazaYC": null,
      "yaMin": 21,
      "spdYa": 43.984571428571435,
      "spdTT": 36.617252968517725,
      "notes": "⚡ Эконом 20.5. Cmf 24.2 (без молнии). Электро 23.2, Кмф+ 26.1, Biz 29.6. Брилевичи → Партизанский (восток)."
    },
    {
      "id": "9904",
      "sourceFile": "2026-04-26-1330.results.json",
      "date": "2026-04-26",
      "day": "sunday",
      "hour": 13,
      "slot": "h13",
      "fromAddr": "ул. Михаила Киреенко 5",
      "fromLat": 53.847,
      "fromLng": 27.483,
      "toAddr": "Фабрициуса 8",
      "toLat": 53.901,
      "toLng": 27.523,
      "km": 9.7633,
      "min": 15.154368932038834,
      "freeMin": 14.19,
      "ttMult": 1.0679611650485437,
      "factC": 16.6,
      "factE": 14.1,
      "sC": 1.6600000000000001,
      "sE": 1.5666666666666667,
      "hb": 0.9437751004016063,
      "yaSurgeC": null,
      "bazaYC": null,
      "yaMin": 13,
      "spdYa": 45.06138461538461,
      "spdTT": 38.65538727657121,
      "notes": "⚡ Эконом 14.1. Cmf 16.6 (без молнии). Электро 15.9, Кмф+ 17.7, Biz 18.5. Брилевичи → Молодёжная."
    },
    {
      "id": "9903",
      "sourceFile": "2026-04-26-1330.results.json",
      "date": "2026-04-26",
      "day": "sunday",
      "hour": 13,
      "slot": "h13",
      "fromAddr": "ул. Михаила Киреенко 5",
      "fromLat": 53.847,
      "fromLng": 27.483,
      "toAddr": "Бобруйская 6",
      "toLat": 53.89,
      "toLng": 27.547,
      "km": 8.3634,
      "min": 14.568969797269341,
      "freeMin": 13.338333333333333,
      "ttMult": 1.092263136119156,
      "factC": 17,
      "factE": 14.7,
      "sC": 1.7,
      "sE": 1.6333333333333333,
      "hb": 0.9607843137254902,
      "yaSurgeC": null,
      "bazaYC": null,
      "yaMin": 16,
      "spdYa": 31.362750000000002,
      "spdTT": 34.44334136062613,
      "notes": "⚡ Эконом 14.7. Cmf 17.0 (без молнии). Электро 17.3, Кмф+ 17.8, Biz —. Брилевичи → Вокзал."
    },
    {
      "id": "9902",
      "sourceFile": "2026-04-26-1330.results.json",
      "date": "2026-04-26",
      "day": "sunday",
      "hour": 13,
      "slot": "h13",
      "fromAddr": "ул. Михаила Киреенко 5",
      "fromLat": 53.847,
      "fromLng": 27.483,
      "toAddr": "Васильки",
      "toLat": 53.825,
      "toLng": 27.4,
      "km": 9.965399999999999,
      "min": 12.864551083591328,
      "freeMin": 12.591666666666667,
      "ttMult": 1.0216718266253868,
      "factC": 17.8,
      "factE": 14.2,
      "sC": 1.78,
      "sE": 1.5777777777777777,
      "hb": 0.8863920099875156,
      "yaSurgeC": null,
      "bazaYC": null,
      "yaMin": 15,
      "spdYa": 39.861599999999996,
      "spdTT": 46.478419349016306,
      "notes": "⚡ Эконом 14.2. Cmf 17.8 (без молнии). Электро 19.1, Кмф+ 19.6, Biz —. Брилевичи → пос.Васильки (юго-запад). Координаты Васильки приблизительные."
    },
    {
      "id": "9901",
      "sourceFile": "2026-04-26-1330.results.json",
      "date": "2026-04-26",
      "day": "sunday",
      "hour": 13,
      "slot": "h13",
      "fromAddr": "ул. Михаила Киреенко 5",
      "fromLat": 53.847,
      "fromLng": 27.483,
      "toAddr": "Партизанский пр.",
      "toLat": 53.89,
      "toLng": 27.62,
      "km": 13.689,
      "min": 22.75363924050633,
      "freeMin": 21.788333333333334,
      "ttMult": 1.0443037974683544,
      "factC": 30,
      "factE": 26,
      "sC": 3,
      "sE": 2.888888888888889,
      "hb": 0.9629629629629629,
      "yaSurgeC": null,
      "bazaYC": null,
      "yaMin": 26,
      "spdYa": 31.589999999999996,
      "spdTT": 36.09708281468397,
      "notes": "⚡ Эконом 26.0. Cmf 30.0 (без молнии). Электро 29.6, Кмф+ 32.8, Biz —. Брилевичи → Большой Тростенец / восточный край Партизанского. Тестовый дубль 9905 для проверки разброса."
    },
    {
      "id": "9900",
      "sourceFile": "2026-04-26-1330.results.json",
      "date": "2026-04-26",
      "day": "sunday",
      "hour": 13,
      "slot": "h13",
      "fromAddr": "ул. Михаила Киреенко 5",
      "fromLat": 53.847,
      "fromLng": 27.483,
      "toAddr": "Жилуновича 15",
      "toLat": 53.872,
      "toLng": 27.625,
      "km": 14.3553,
      "min": 20.732911392405065,
      "freeMin": 19.853333333333335,
      "ttMult": 1.0443037974683544,
      "factC": 23.9,
      "factE": 20.3,
      "sC": 2.3899999999999997,
      "sE": 2.2555555555555555,
      "hb": 0.9437470943747096,
      "yaSurgeC": null,
      "bazaYC": null,
      "yaMin": 20,
      "spdYa": 43.0659,
      "spdTT": 41.54351425605958,
      "notes": "⚡ Эконом 20.3. Cmf 23.9 (без молнии). Электро 22.8, Кмф+ 25.7, Biz 29.0. Брилевичи → Заводской район."
    },
    {
      "id": "9899",
      "sourceFile": "2026-04-26-1330.results.json",
      "date": "2026-04-26",
      "day": "sunday",
      "hour": 13,
      "slot": "h13",
      "fromAddr": "ул. Михаила Киреенко 5",
      "fromLat": 53.847,
      "fromLng": 27.483,
      "toAddr": "Грушевка",
      "toLat": 53.878,
      "toLng": 27.527,
      "km": 8.2291,
      "min": 13.072569300786098,
      "freeMin": 11.968333333333334,
      "ttMult": 1.092263136119156,
      "factC": 15.2,
      "factE": 11.7,
      "sC": 1.52,
      "sE": 1.2999999999999998,
      "hb": 0.8552631578947367,
      "yaSurgeC": null,
      "bazaYC": null,
      "yaMin": 10,
      "spdYa": 49.3746,
      "spdTT": 37.7696219189528,
      "notes": "⚡ Эконом 11.7. Cmf 15.2 (без молнии). Электро 15.9, Кмф+ 16.8, Biz —. Короткий Брилевичи → Грушевка. Закрывает дыру района Грушевки."
    },
    {
      "id": "9898",
      "sourceFile": "2026-04-26-1330.results.json",
      "date": "2026-04-26",
      "day": "sunday",
      "hour": 13,
      "slot": "h13",
      "fromAddr": "ул. Михаила Киреенко 5",
      "fromLat": 53.847,
      "fromLng": 27.483,
      "toAddr": "Парковка Kiroff Center",
      "toLat": 53.905,
      "toLng": 27.466,
      "km": 12.4453,
      "min": 15.003333333333334,
      "freeMin": 15.003333333333334,
      "ttMult": 1,
      "factC": 18.8,
      "factE": 15.5,
      "sC": 1.8800000000000001,
      "sE": 1.7222222222222223,
      "hb": 0.9160756501182034,
      "yaSurgeC": null,
      "bazaYC": null,
      "yaMin": 16,
      "spdYa": 46.669875,
      "spdTT": 49.7701399688958,
      "notes": "⚡ Эконом 15.5. Cmf 18.8 (без молнии). Электро 17.6, Кмф+ 20.6, Biz 20.5. Брилевичи → Каменная Горка (Kiroff Center)."
    },
    {
      "id": "9897",
      "sourceFile": "2026-04-26-1330.results.json",
      "date": "2026-04-26",
      "day": "sunday",
      "hour": 13,
      "slot": "h13",
      "fromAddr": "ул. Михаила Киреенко 5",
      "fromLat": 53.847,
      "fromLng": 27.483,
      "toAddr": "Кальварийская 33",
      "toLat": 53.918,
      "toLng": 27.519,
      "km": 11.0384,
      "min": 15.444498381877024,
      "freeMin": 14.461666666666668,
      "ttMult": 1.0679611650485437,
      "factC": 12.8,
      "factE": 11.2,
      "sC": 1.28,
      "sE": 1.2444444444444445,
      "hb": 0.9722222222222222,
      "yaSurgeC": null,
      "bazaYC": null,
      "yaMin": 9,
      "spdYa": 73.58933333333333,
      "spdTT": 42.88284304378345,
      "notes": "⚡ Эконом 11.2. Cmf 12.8 (без молнии). Электро 13.0, Кмф+ 13.9, Biz 17.1. Короткий Брилевичи → Кальварийская. Самый низкий sC=1.28 в прогоне."
    },
    {
      "id": "9896",
      "sourceFile": "2026-04-26-1330.results.json",
      "date": "2026-04-26",
      "day": "sunday",
      "hour": 13,
      "slot": "h13",
      "fromAddr": "ул. Михаила Киреенко 5",
      "fromLat": 53.847,
      "fromLng": 27.483,
      "toAddr": "Выход на пр-т Победителей",
      "toLat": 53.913,
      "toLng": 27.508,
      "km": 9.7858,
      "min": 14.45663430420712,
      "freeMin": 13.536666666666667,
      "ttMult": 1.0679611650485437,
      "factC": 18.4,
      "factE": 15.7,
      "sC": 1.8399999999999999,
      "sE": 1.7444444444444445,
      "hb": 0.9480676328502416,
      "yaSurgeC": null,
      "bazaYC": null,
      "yaMin": 15,
      "spdYa": 39.1432,
      "spdTT": 40.61443262967026,
      "notes": "⚡ Эконом 15.7. Cmf 18.4 (без молнии). Электро 17.7, Кмф+ 19.8, Biz 20.8. Брилевичи → пр-т Победителей."
    },
    {
      "id": "9895",
      "sourceFile": "2026-04-26-1330.results.json",
      "date": "2026-04-26",
      "day": "sunday",
      "hour": 13,
      "slot": "h13",
      "fromAddr": "ул. Михаила Киреенко 5",
      "fromLat": 53.847,
      "fromLng": 27.483,
      "toAddr": "Киселёва 30",
      "toLat": 53.917,
      "toLng": 27.566,
      "km": 11.277700000000001,
      "min": 16.633495145631066,
      "freeMin": 15.575,
      "ttMult": 1.0679611650485437,
      "factC": 16.8,
      "factE": 15,
      "sC": 1.6800000000000002,
      "sE": 1.6666666666666667,
      "hb": 0.992063492063492,
      "yaSurgeC": null,
      "bazaYC": null,
      "yaMin": 16,
      "spdYa": 42.291375,
      "spdTT": 40.680686414708894,
      "notes": "⚡ Эконом 15.0. Cmf 16.8 (без молнии). Электро 17.7, Кмф+ 17.8, Biz —. Брилевичи → Киселёва (центр)."
    },
    {
      "id": "9894",
      "sourceFile": "2026-04-26-1330.results.json",
      "date": "2026-04-26",
      "day": "sunday",
      "hour": 13,
      "slot": "h13",
      "fromAddr": "ул. Михаила Киреенко 5",
      "fromLat": 53.847,
      "fromLng": 27.483,
      "toAddr": "Кальварийская 16",
      "toLat": 53.913,
      "toLng": 27.52,
      "km": 10.245700000000001,
      "min": 15.63673139158576,
      "freeMin": 14.641666666666667,
      "ttMult": 1.0679611650485437,
      "factC": 14.4,
      "factE": 12.6,
      "sC": 1.44,
      "sE": 1.4,
      "hb": 0.9722222222222222,
      "yaSurgeC": null,
      "bazaYC": null,
      "yaMin": 12,
      "spdYa": 51.228500000000004,
      "spdTT": 39.313970714544425,
      "notes": "⚡ Эконом 12.6. Cmf 14.4 (без молнии). Электро 14.7, Кмф+ 15.9, Biz 19.6. Брилевичи → Кальварийская 16. Дубль 9897 для проверки."
    },
    {
      "id": "9893",
      "sourceFile": "2026-04-26-1330.results.json",
      "date": "2026-04-26",
      "day": "sunday",
      "hour": 13,
      "slot": "h13",
      "fromAddr": "ул. Михаила Киреенко 5",
      "fromLat": 53.847,
      "fromLng": 27.483,
      "toAddr": "Дзержинск",
      "toLat": 53.685,
      "toLng": 27.142,
      "km": 30.8914,
      "min": 25.426666666666666,
      "freeMin": 25.426666666666666,
      "ttMult": 1,
      "factC": 83.2,
      "factE": 73.3,
      "sC": 8.32,
      "sE": 8.144444444444444,
      "hb": 0.9788995726495725,
      "yaSurgeC": null,
      "bazaYC": null,
      "yaMin": 36,
      "spdYa": 51.48566666666667,
      "spdTT": 72.89528054535921,
      "notes": "⚡ Эконом 73.3. Cmf 83.2 (без молнии). Электро 84.2, Кмф+ 85.9, Biz 127.3. МЕЖДУГОРОДНИЙ Минск → Дзержинск (~36 км). sC=8.32 — почти наверняка действует другой тариф для inter-city."
    },
    {
      "id": "9920",
      "sourceFile": "2026-04-26-1340.results.json",
      "date": "2026-04-26",
      "day": "sunday",
      "hour": 12,
      "slot": "h12",
      "fromAddr": "Боровлянский сельсовет 74А",
      "fromLat": 54.025,
      "fromLng": 27.668,
      "toAddr": "Василя Быкова 39",
      "toLat": 53.9085,
      "toLng": 27.4795,
      "km": 21.508599999999998,
      "min": 25.29950819672131,
      "freeMin": 23.926666666666666,
      "ttMult": 1.0573770491803278,
      "factC": 20.8,
      "factE": 18.5,
      "sC": 2.08,
      "sE": 2.0555555555555554,
      "hb": 0.9882478632478631,
      "yaSurgeC": null,
      "bazaYC": null,
      "yaMin": 17,
      "spdYa": 75.91270588235294,
      "spdTT": 51.00952911674561,
      "notes": "⚡ Эконом 18.5. Cmf 20.8 (без молнии). Электро 21.2, Кмф+ 22.6. Боровляны (за МКАД на С) → Каменная Горка (запад). Скрин из 12:10 окна (другой час, отдельный замер). hb=0.988 (высокий)."
    },
    {
      "id": "9912",
      "sourceFile": "2026-04-26-1340.results.json",
      "date": "2026-04-26",
      "day": "sunday",
      "hour": 13,
      "slot": "h13",
      "fromAddr": "Свердлова 26",
      "fromLat": 53.892,
      "fromLng": 27.555,
      "toAddr": "Тимирязева 28",
      "toLat": 53.917,
      "toLng": 27.52,
      "km": 4.105300000000001,
      "min": 5.236666666666666,
      "freeMin": 5.236666666666666,
      "ttMult": 1,
      "factC": 14.2,
      "factE": 11.7,
      "sC": 1.42,
      "sE": 1.2999999999999998,
      "hb": 0.9154929577464788,
      "yaSurgeC": null,
      "bazaYC": null,
      "yaMin": 11,
      "spdYa": 22.39254545454546,
      "spdTT": 47.037173774665824,
      "notes": "⚡ Эконом 11.7. Cmf 14.2 (без молнии). Электро 15.5, Кмф+ 15.3, Biz 17.0. Центр → Тимирязева (запад). hb=0.915."
    },
    {
      "id": "9913",
      "sourceFile": "2026-04-26-1340.results.json",
      "date": "2026-04-26",
      "day": "sunday",
      "hour": 13,
      "slot": "h13",
      "fromAddr": "Свердлова 26",
      "fromLat": 53.892,
      "fromLng": 27.555,
      "toAddr": "Измайловская 48",
      "toLat": 53.86,
      "toLng": 27.5,
      "km": 7.2318,
      "min": 11.543115686805743,
      "freeMin": 11.165,
      "ttMult": 1.0338661609319968,
      "factC": 20.5,
      "factE": 16.1,
      "sC": 2.05,
      "sE": 1.788888888888889,
      "hb": 0.872628726287263,
      "yaSurgeC": null,
      "bazaYC": null,
      "yaMin": 19,
      "spdYa": 22.837263157894736,
      "spdTT": 37.590197635805964,
      "notes": "⚡ Эконом 16.1. Cmf 20.5 (без молнии). Электро 22.3, Кмф+ 22.0, Biz 25.4. Центр → Михалово (юг). hb=0.873 (низкий)."
    },
    {
      "id": "9914",
      "sourceFile": "2026-04-26-1340.results.json",
      "date": "2026-04-26",
      "day": "sunday",
      "hour": 13,
      "slot": "h13",
      "fromAddr": "Свердлова 26",
      "fromLat": 53.892,
      "fromLng": 27.555,
      "toAddr": "пр. Победителей 115",
      "toLat": 53.927,
      "toLng": 27.486,
      "km": 7.398,
      "min": 11.443943661971831,
      "freeMin": 11.285,
      "ttMult": 1.0140845070422535,
      "factC": 21.6,
      "factE": 16.6,
      "sC": 2.16,
      "sE": 1.8444444444444446,
      "hb": 0.8539094650205761,
      "yaSurgeC": null,
      "bazaYC": null,
      "yaMin": 17,
      "spdYa": 26.110588235294117,
      "spdTT": 38.78732831191848,
      "notes": "⚡ Эконом 16.6. Cmf 21.6 (без молнии). Электро 23.5, Кмф+ 22.7, Biz 26.5. Центр → Веснянка. hb=0.854 (низкий)."
    },
    {
      "id": "9915",
      "sourceFile": "2026-04-26-1340.results.json",
      "date": "2026-04-26",
      "day": "sunday",
      "hour": 13,
      "slot": "h13",
      "fromAddr": "Свердлова 26",
      "fromLat": 53.892,
      "fromLng": 27.555,
      "toAddr": "Игнатенко 8",
      "toLat": 53.917,
      "toLng": 27.534,
      "km": 5.15,
      "min": 6.795121951219513,
      "freeMin": 6.633333333333334,
      "ttMult": 1.024390243902439,
      "factC": 15.3,
      "factE": 13.1,
      "sC": 1.53,
      "sE": 1.4555555555555555,
      "hb": 0.9513435003631081,
      "yaSurgeC": null,
      "bazaYC": null,
      "yaMin": 13,
      "spdYa": 23.76923076923077,
      "spdTT": 45.47379755922469,
      "notes": "⚡ Эконом 13.1. Cmf 15.3 (без молнии). Электро 17.1, Кмф+ 16.1, Biz 20.5. Центр → север. hb=0.951."
    },
    {
      "id": "9916",
      "sourceFile": "2026-04-26-1340.results.json",
      "date": "2026-04-26",
      "day": "sunday",
      "hour": 13,
      "slot": "h13",
      "fromAddr": "Свердлова 26",
      "fromLat": 53.892,
      "fromLng": 27.555,
      "toAddr": "Старовиленская 57",
      "toLat": 53.917,
      "toLng": 27.56,
      "km": 4.563,
      "min": 6.628333333333333,
      "freeMin": 6.628333333333333,
      "ttMult": 1,
      "factC": 12.7,
      "factE": 11.2,
      "sC": 1.27,
      "sE": 1.2444444444444445,
      "hb": 0.9798775153105862,
      "yaSurgeC": null,
      "bazaYC": null,
      "yaMin": 11,
      "spdYa": 24.889090909090907,
      "spdTT": 41.304500880060345,
      "notes": "⚡ Эконом 11.2. Cmf 12.7 (без молнии). Электро 13.9, Кмф+ 13.7, Biz 17.0. Короткий центр → Старовиленская. hb=0.980."
    },
    {
      "id": "9917",
      "sourceFile": "2026-04-26-1340.results.json",
      "date": "2026-04-26",
      "day": "sunday",
      "hour": 13,
      "slot": "h13",
      "fromAddr": "Свердлова 26",
      "fromLat": 53.892,
      "fromLng": 27.555,
      "toAddr": "Красная 4",
      "toLat": 53.91,
      "toLng": 27.567,
      "km": 3.4372,
      "min": 5.345,
      "freeMin": 5.345,
      "ttMult": 1,
      "factC": 13,
      "factE": 11.2,
      "sC": 1.3,
      "sE": 1.2444444444444445,
      "hb": 0.9572649572649572,
      "yaSurgeC": null,
      "bazaYC": null,
      "yaMin": 9,
      "spdYa": 22.914666666666665,
      "spdTT": 38.584097287184285,
      "notes": "⚡ Эконом 11.2. Cmf 13.0 (без молнии). Электро 14.7, Кмф+ 14.0, Biz 15.8. Очень короткий центр → Красная. hb=0.957."
    },
    {
      "id": "9918",
      "sourceFile": "2026-04-26-1340.results.json",
      "date": "2026-04-26",
      "day": "sunday",
      "hour": 13,
      "slot": "h13",
      "fromAddr": "Свердлова 26",
      "fromLat": 53.892,
      "fromLng": 27.555,
      "toAddr": "Киселёва 28",
      "toLat": 53.917,
      "toLng": 27.564,
      "km": 4.1358999999999995,
      "min": 6.375,
      "freeMin": 6.375,
      "ttMult": 1,
      "factC": 12.7,
      "factE": 11.3,
      "sC": 1.27,
      "sE": 1.2555555555555555,
      "hb": 0.9886264216972878,
      "yaSurgeC": null,
      "bazaYC": null,
      "yaMin": 10,
      "spdYa": 24.815399999999997,
      "spdTT": 38.92611764705882,
      "notes": "⚡ Эконом 11.3. Cmf 12.7 (без молнии). Электро 12.9, Кмф+ 13.7. Центр → Киселёва 28. hb=0.989."
    },
    {
      "id": "9919",
      "sourceFile": "2026-04-26-1340.results.json",
      "date": "2026-04-26",
      "day": "sunday",
      "hour": 13,
      "slot": "h13",
      "fromAddr": "Свердлова 26",
      "fromLat": 53.892,
      "fromLng": 27.555,
      "toAddr": "Киселёва 16",
      "toLat": 53.913,
      "toLng": 27.52,
      "km": 4.5246,
      "min": 6.456666666666666,
      "freeMin": 6.456666666666666,
      "ttMult": 1,
      "factC": 12.7,
      "factE": 11.3,
      "sC": 1.27,
      "sE": 1.2555555555555555,
      "hb": 0.9886264216972878,
      "yaSurgeC": null,
      "bazaYC": null,
      "yaMin": 10,
      "spdYa": 27.1476,
      "spdTT": 42.04584408879712,
      "notes": "⚡ Эконом 11.3. Cmf 12.7 (без молнии). Электро 13.0, Кмф+ 13.7. Дубль 9918 на соседний адрес — цены идентичны, подтверждение стабильности Yandex. hb=0.989."
    },
    {
      "id": "9922",
      "sourceFile": "2026-04-26-1340.results.json",
      "date": "2026-04-26",
      "day": "sunday",
      "hour": 13,
      "slot": "h13",
      "fromAddr": "Академика Фёдорова 5",
      "fromLat": 53.945,
      "fromLng": 27.605,
      "toAddr": "Измайловская 48",
      "toLat": 53.86,
      "toLng": 27.5,
      "km": 14.0022,
      "min": 21.53211906467791,
      "freeMin": 20.146666666666665,
      "ttMult": 1.0687683188953299,
      "factC": 30.2,
      "factE": 25.4,
      "sC": 3.02,
      "sE": 2.822222222222222,
      "hb": 0.9345106696100073,
      "yaSurgeC": null,
      "bazaYC": null,
      "yaMin": 28,
      "spdYa": 30.00471428571429,
      "spdTT": 39.017618167372284,
      "notes": "⚡ Эконом 25.4. Cmf 30.2 (без молнии). Электро —, Кмф+ 32.3, Biz 36.0. Дальний Зелёный Луг → Михалово (через весь город). hb=0.935."
    },
    {
      "id": "9923",
      "sourceFile": "2026-04-26-1340.results.json",
      "date": "2026-04-26",
      "day": "sunday",
      "hour": 13,
      "slot": "h13",
      "fromAddr": "Академика Фёдорова 5",
      "fromLat": 53.945,
      "fromLng": 27.605,
      "toAddr": "пр. Победителей 115",
      "toLat": 53.927,
      "toLng": 27.486,
      "km": 9.4136,
      "min": 15.182172131147539,
      "freeMin": 14.358333333333333,
      "ttMult": 1.0573770491803278,
      "factC": 21.3,
      "factE": 19,
      "sC": 2.13,
      "sE": 2.111111111111111,
      "hb": 0.99113197704747,
      "yaSurgeC": null,
      "bazaYC": null,
      "yaMin": 14,
      "spdYa": 40.344,
      "spdTT": 37.20258175977541,
      "notes": "⚡ Эконом 19.0. Cmf 21.3 (без молнии). Электро 24.7, Кмф+ 23.2. Зелёный Луг → Веснянка. hb=0.991."
    },
    {
      "id": "9924",
      "sourceFile": "2026-04-26-1340.results.json",
      "date": "2026-04-26",
      "day": "sunday",
      "hour": 13,
      "slot": "h13",
      "fromAddr": "Академика Фёдорова 5",
      "fromLat": 53.945,
      "fromLng": 27.605,
      "toAddr": "Игуменский тракт 13",
      "toLat": 53.87,
      "toLng": 27.6,
      "km": 10.8247,
      "min": 16.967377049180328,
      "freeMin": 16.046666666666667,
      "ttMult": 1.0573770491803278,
      "factC": 26.3,
      "factE": 23.8,
      "sC": 2.63,
      "sE": 2.6444444444444444,
      "hb": 1.0054921841994084,
      "yaSurgeC": null,
      "bazaYC": null,
      "yaMin": 17,
      "spdYa": 38.20482352941177,
      "spdTT": 38.27827943691365,
      "notes": "⚡ Эконом 23.8. Cmf 26.3 (без молнии). Электро 29.8, Кмф+ 28.5. Зелёный Луг → Игуменский тракт (юго-восток). hb=1.005 — АНОМАЛИЯ: Эконом немного дороже Cmf в нашей метрике (≥1.0), граничный случай."
    },
    {
      "id": "9947",
      "sourceFile": "2026-04-26-1422.results.json",
      "date": "2026-04-26",
      "day": "sunday",
      "hour": 14,
      "slot": "h14",
      "fromAddr": "Кирова 23",
      "fromLat": 53.892,
      "fromLng": 27.557,
      "toAddr": "Дружная 26",
      "toLat": 53.747,
      "toLng": 27.33,
      "km": 25.2965,
      "min": 25.761666666666667,
      "freeMin": 25.761666666666667,
      "ttMult": 1,
      "factC": 43.6,
      "factE": 35,
      "sC": 4.36,
      "sE": 3.888888888888889,
      "hb": 0.891946992864424,
      "yaSurgeC": null,
      "bazaYC": null,
      "yaMin": 42,
      "spdYa": 36.13785714285715,
      "spdTT": 58.9166073623601,
      "notes": "Эконом 35.0 (без молнии). Cmf 43.6, Электро 45.9, Кмф+ 52.6, Biz 79.5. Минск (центр, ЖД) → Фаниполь (за МКАД, ЮЗ, ~25 км). Междугородний — sC≈7.5, ожидаемый hb≈0.97."
    },
    {
      "id": "9948",
      "sourceFile": "2026-04-26-1422.results.json",
      "date": "2026-04-26",
      "day": "sunday",
      "hour": 14,
      "slot": "h14",
      "fromAddr": "Кирова 23",
      "fromLat": 53.892,
      "fromLng": 27.557,
      "toAddr": "Кульман 9",
      "toLat": 53.926,
      "toLng": 27.598,
      "km": 5.6556999999999995,
      "min": 8.473333333333333,
      "freeMin": 8.473333333333333,
      "ttMult": 1,
      "factC": 8,
      "factE": 6.5,
      "sC": 0.8,
      "sE": 0.7222222222222222,
      "hb": 0.9027777777777777,
      "yaSurgeC": null,
      "bazaYC": null,
      "yaMin": 12,
      "spdYa": 28.278499999999998,
      "spdTT": 40.04822974036192,
      "notes": "Эконом 6.5 (без молнии). Cmf 8.0, Электро 9.3, Кмф+ 9.7, Biz 14.7. Центр → пл. Я.Коласа (север). Минимальный фейр, sC≈1.37 — район плато 0.96."
    },
    {
      "id": "9967",
      "sourceFile": "2026-04-26-1545.results.json",
      "date": "2026-04-26",
      "day": "sunday",
      "hour": 15,
      "slot": "h15",
      "fromAddr": "Зыбицкая 6",
      "fromLat": 53.9063,
      "fromLng": 27.5577,
      "toAddr": "Грушевская 11",
      "toLat": 53.8874,
      "toLng": 27.5275,
      "km": 4.6828,
      "min": 7.859637096774194,
      "freeMin": 7.555000000000001,
      "ttMult": 1.0403225806451613,
      "factC": 10.7,
      "factE": 8,
      "sC": 1.0699999999999998,
      "sE": 0.8888888888888888,
      "hb": 0.8307372793354103,
      "yaSurgeC": 1.1,
      "bazaYC": 9.727272727272727,
      "yaMin": 13,
      "spdYa": 21.612923076923078,
      "spdTT": 35.748215412555986,
      "notes": "Центр → Грушевка (юг). Cmf 10.7 ⚡1.1, Эл 12 ⚡1.1, К+ 11.5 ⚡1.2. Эконом 8.0 (виден ⚡, но число не подписано — посчитаю sE для hidden boost)."
    },
    {
      "id": "9968",
      "sourceFile": "2026-04-26-1545.results.json",
      "date": "2026-04-26",
      "day": "sunday",
      "hour": 15,
      "slot": "h15",
      "fromAddr": "Зыбицкая 6",
      "fromLat": 53.9063,
      "fromLng": 27.5577,
      "toAddr": "Юрово-Завальная 15",
      "toLat": 53.929,
      "toLng": 27.466,
      "km": 9.5155,
      "min": 17.92551440329218,
      "freeMin": 16.883333333333333,
      "ttMult": 1.0617283950617284,
      "factC": 9.4,
      "factE": 7.4,
      "sC": 0.9400000000000001,
      "sE": 0.8222222222222223,
      "hb": 0.8747044917257684,
      "yaSurgeC": 1,
      "bazaYC": 9.4,
      "yaMin": 11,
      "spdYa": 51.90272727272727,
      "spdTT": 31.85013200486696,
      "notes": "Центр → запад. Cmf ⚡1.0 = базовый minimum (10br × 1.0 ≈ 9.4 после округления). Эл ⚡1.1, К+ ⚡1.0. Точка плато hb≈0.95 у sC=1.0."
    },
    {
      "id": "9971",
      "sourceFile": "2026-04-26-1545.results.json",
      "date": "2026-04-26",
      "day": "sunday",
      "hour": 15,
      "slot": "h15",
      "fromAddr": "Зыбицкая 6",
      "fromLat": 53.9063,
      "fromLng": 27.5577,
      "toAddr": "Зелёная 26",
      "toLat": 53.9833,
      "toLng": 27.6689,
      "km": 12.764100000000001,
      "min": 19.56467517401392,
      "freeMin": 17.458333333333332,
      "ttMult": 1.1206496519721578,
      "factC": 22.2,
      "factE": 20.1,
      "sC": 2.2199999999999998,
      "sE": 2.2333333333333334,
      "hb": 1.006006006006006,
      "yaSurgeC": 2.3,
      "bazaYC": 9.652173913043478,
      "yaMin": 25,
      "spdYa": 30.63384,
      "spdTT": 39.14432481952001,
      "notes": "Центр → Боровляны (Зелёная 26, далеко за МКАД север). Cmf ⚡2.3, Эл ⚡2.4, К+ ⚡2.5. Дальняя загородная, ожидаю sC≈2.3."
    },
    {
      "id": "9972",
      "sourceFile": "2026-04-26-1545.results.json",
      "date": "2026-04-26",
      "day": "sunday",
      "hour": 15,
      "slot": "h15",
      "fromAddr": "Зыбицкая 6",
      "fromLat": 53.9063,
      "fromLng": 27.5577,
      "toAddr": "Стебенёва 20Н к10",
      "toLat": 53.8373,
      "toLng": 27.5398,
      "km": 9.1915,
      "min": 13.798333333333334,
      "freeMin": 13.798333333333334,
      "ttMult": 1,
      "factC": 17.5,
      "factE": 15.6,
      "sC": 1.75,
      "sE": 1.7333333333333334,
      "hb": 0.9904761904761905,
      "yaSurgeC": 1.8,
      "bazaYC": 9.722222222222221,
      "yaMin": 21,
      "spdYa": 26.26142857142857,
      "spdTT": 39.96787051576277,
      "notes": "Центр → Колядичи (Стебенёва, юг за МКАД). Cmf ⚡1.8, Эл ⚡1.8, К+ ⚡1.9, Биз ⚡2.7."
    },
    {
      "id": "9973",
      "sourceFile": "2026-04-26-1545.results.json",
      "date": "2026-04-26",
      "day": "sunday",
      "hour": 15,
      "slot": "h15",
      "fromAddr": "Зыбицкая 6",
      "fromLat": 53.9063,
      "fromLng": 27.5577,
      "toAddr": "Артиллеристов 2А",
      "toLat": 53.9441,
      "toLng": 27.42,
      "km": 13.4181,
      "min": 18.248991935483872,
      "freeMin": 17.541666666666668,
      "ttMult": 1.0403225806451613,
      "factC": 20.1,
      "factE": 18.3,
      "sC": 2.0100000000000002,
      "sE": 2.033333333333333,
      "hb": 1.011608623548922,
      "yaSurgeC": 2.1,
      "bazaYC": 9.571428571428571,
      "yaMin": 23,
      "spdYa": 35.00373913043479,
      "spdTT": 44.1167382201845,
      "notes": "Центр → Ждановичи (запад за МКАД). Cmf ⚡2.1, Эл ⚡2.1, К+ ⚡2.2, Биз ⚡3.2. \"+1.8 и приедет Комфорт\"."
    },
    {
      "id": "9974",
      "sourceFile": "2026-04-26-1545.results.json",
      "date": "2026-04-26",
      "day": "sunday",
      "hour": 15,
      "slot": "h15",
      "fromAddr": "Зыбицкая 6",
      "fromLat": 53.9063,
      "fromLng": 27.5577,
      "toAddr": "Радашковская 9",
      "toLat": 53.9367,
      "toLng": 27.4355,
      "km": 13.0541,
      "min": 17.76697580645161,
      "freeMin": 17.078333333333333,
      "ttMult": 1.0403225806451613,
      "factC": 21.2,
      "factE": 18.9,
      "sC": 2.12,
      "sE": 2.0999999999999996,
      "hb": 0.9905660377358488,
      "yaSurgeC": 2.2,
      "bazaYC": 9.636363636363635,
      "yaMin": 26,
      "spdYa": 30.124846153846157,
      "spdTT": 44.08437364537778,
      "notes": "Центр → СЗ Минска (Фрунзенский, ул. Радошковская). Cmf ⚡2.2, Эл ⚡2.2, К+ ⚡2.3."
    },
    {
      "id": "9975",
      "sourceFile": "2026-04-26-1545.results.json",
      "date": "2026-04-26",
      "day": "sunday",
      "hour": 15,
      "slot": "h15",
      "fromAddr": "Зыбицкая 6",
      "fromLat": 53.9063,
      "fromLng": 27.5577,
      "toAddr": "Масюковщина 43А",
      "toLat": 53.9336,
      "toLng": 27.4449,
      "km": 11.2853,
      "min": 16.691975806451612,
      "freeMin": 16.045,
      "ttMult": 1.0403225806451613,
      "factC": 19.5,
      "factE": 17.5,
      "sC": 1.95,
      "sE": 1.9444444444444444,
      "hb": 0.9971509971509972,
      "yaSurgeC": 2,
      "bazaYC": 9.75,
      "yaMin": 24,
      "spdYa": 28.21325,
      "spdTT": 40.565479356751,
      "notes": "Центр → Масюковщина (СЗ за МКАД). Cmf ⚡2.0, Эл ⚡2.0, К+ ⚡2.1."
    },
    {
      "id": "9976",
      "sourceFile": "2026-04-26-1545.results.json",
      "date": "2026-04-26",
      "day": "sunday",
      "hour": 15,
      "slot": "h15",
      "fromAddr": "Ангарская 37",
      "fromLat": 53.8696,
      "fromLng": 27.6823,
      "toAddr": "Масюковщина 43А",
      "toLat": 53.9336,
      "toLng": 27.4449,
      "km": 29.7177,
      "min": 27.006666666666668,
      "freeMin": 27.006666666666668,
      "ttMult": 1,
      "factC": 33.8,
      "factE": 29.9,
      "sC": 3.38,
      "sE": 3.322222222222222,
      "hb": 0.9829059829059829,
      "yaSurgeC": 3.4,
      "bazaYC": 9.941176470588236,
      "yaMin": 28,
      "spdYa": 63.68078571428572,
      "spdTT": 66.02303135028389,
      "notes": "ЮВ → СЗ диагональ через половину МКАД. Cmf ⚡3.4, Эл ⚡3.8, К+ ⚡3.7, Биз ⚡5.5. Большая поездка ~25 км — проверка плато 0.97 для sC≥3."
    },
    {
      "id": "9977",
      "sourceFile": "2026-04-26-1545.results.json",
      "date": "2026-04-26",
      "day": "sunday",
      "hour": 15,
      "slot": "h15",
      "fromAddr": "Ангарская 37",
      "fromLat": 53.8696,
      "fromLng": 27.6823,
      "toAddr": "Высокая 17",
      "toLat": 53.9175,
      "toLng": 27.6736,
      "km": 7.081,
      "min": 10.346666666666666,
      "freeMin": 10.346666666666666,
      "ttMult": 1,
      "factC": 14.2,
      "factE": 12.1,
      "sC": 1.42,
      "sE": 1.3444444444444443,
      "hb": 0.94679186228482,
      "yaSurgeC": 1.5,
      "bazaYC": 9.466666666666667,
      "yaMin": 15,
      "spdYa": 28.324,
      "spdTT": 41.06250000000001,
      "notes": "Заводской → Партизанский (короткая, сосед). Cmf ⚡1.5, Эл ⚡1.8, К+ ⚡1.5, Биз ⚡2.0."
    },
    {
      "id": "9978",
      "sourceFile": "2026-04-26-1545.results.json",
      "date": "2026-04-26",
      "day": "sunday",
      "hour": 15,
      "slot": "h15",
      "fromAddr": "Ангарская 37",
      "fromLat": 53.8696,
      "fromLng": 27.6823,
      "toAddr": "Спектр-М 37",
      "toLat": 53.8725,
      "toLng": 27.694,
      "km": 1.8700999999999999,
      "min": 2.683333333333333,
      "freeMin": 2.683333333333333,
      "ttMult": 1,
      "factC": 21,
      "factE": 19.1,
      "sC": 2.1,
      "sE": 2.1222222222222222,
      "hb": 1.0105820105820105,
      "yaSurgeC": 2.1,
      "bazaYC": 10,
      "yaMin": 25,
      "spdYa": 4.488239999999999,
      "spdTT": 41.81590062111801,
      "notes": "Заводской → Большое Стиклево (ЮВ за МКАД). Cmf ⚡2.1, Эл ⚡2.5, К+ ⚡2.3, Биз ⚡3.2. \"+1.9 и приедет Комфорт\"."
    },
    {
      "id": "9979",
      "sourceFile": "2026-04-26-1545.results.json",
      "date": "2026-04-26",
      "day": "sunday",
      "hour": 15,
      "slot": "h15",
      "fromAddr": "Ангарская 37",
      "fromLat": 53.8696,
      "fromLng": 27.6823,
      "toAddr": "Измайловская 52 Копище",
      "toLat": 53.9621,
      "toLng": 27.67,
      "km": 13.349200000000002,
      "min": 14.571666666666665,
      "freeMin": 14.571666666666665,
      "ttMult": 1,
      "factC": 19.4,
      "factE": 17.1,
      "sC": 1.94,
      "sE": 1.9000000000000001,
      "hb": 0.9793814432989691,
      "yaSurgeC": 2,
      "bazaYC": 9.7,
      "yaMin": 23,
      "spdYa": 34.824,
      "spdTT": 54.966395973922005,
      "notes": "Заводской → Копище (СВ за МКАД, через М-н Восток). Cmf ⚡2.0, Эл ⚡2.4, К+ ⚡2.3, Биз ⚡3.0."
    },
    {
      "id": "9980",
      "sourceFile": "2026-04-26-1545.results.json",
      "date": "2026-04-26",
      "day": "sunday",
      "hour": 15,
      "slot": "h15",
      "fromAddr": "Качинская 5",
      "fromLat": 53.933,
      "fromLng": 27.4429,
      "toAddr": "Измайловская 52 Копище",
      "toLat": 53.9621,
      "toLng": 27.67,
      "km": 20.1206,
      "min": 19.706666666666667,
      "freeMin": 19.706666666666667,
      "ttMult": 1,
      "factC": 23.4,
      "factE": 19.9,
      "sC": 2.34,
      "sE": 2.211111111111111,
      "hb": 0.9449192782526115,
      "yaSurgeC": 2.4,
      "bazaYC": 9.75,
      "yaMin": 21,
      "spdYa": 57.487428571428566,
      "spdTT": 61.26028416779432,
      "notes": "СЗ → СВ диагональ по северной дуге МКАД. Cmf ⚡2.4, Эл ⚡2.5, К+ ⚡2.5, Биз ⚡3.5. Дальняя поездка ~25 км по МКАД."
    },
    {
      "id": "9982",
      "sourceFile": "2026-04-26-1547.results.json",
      "date": "2026-04-26",
      "day": "sunday",
      "hour": 15,
      "slot": "h15",
      "fromAddr": "Немига 3",
      "fromLat": 53.90402,
      "fromLng": 27.55239,
      "toAddr": "Вилейка",
      "toLat": 54.48988,
      "toLng": 26.91608,
      "km": 98.223,
      "min": 88.14833333333333,
      "freeMin": 88.14833333333333,
      "ttMult": 1,
      "factC": 190.1,
      "factE": 146.4,
      "sC": 19.009999999999998,
      "sE": 16.266666666666666,
      "hb": 0.8556899877257584,
      "yaSurgeC": 19,
      "bazaYC": 10.005263157894737,
      "yaMin": 88,
      "spdYa": 66.97022727272727,
      "spdTT": 66.85753181190796,
      "notes": "Центр → Вилейка (~120 км СЗ). Дальняя загородная. Эконом ⚡, Комфорт 190.1, Электро 196.8, К+ 210.6, Биз 318.9. sC=factC/10=19 — outlier по плоской baza, но полезен для дальнезагородной модели (per-km режим Y.)."
    },
    {
      "id": "9983",
      "sourceFile": "2026-04-26-1547.results.json",
      "date": "2026-04-26",
      "day": "sunday",
      "hour": 15,
      "slot": "h15",
      "fromAddr": "Немига 3",
      "fromLat": 53.90402,
      "fromLng": 27.55239,
      "toAddr": "Изумрудная 8 Ждановичи",
      "toLat": 53.933,
      "toLng": 27.36714,
      "km": 15.022,
      "min": 21.439436619718307,
      "freeMin": 21.141666666666666,
      "ttMult": 1.0140845070422535,
      "factC": 22.2,
      "factE": 20.1,
      "sC": 2.2199999999999998,
      "sE": 2.2333333333333334,
      "hb": 1.006006006006006,
      "yaSurgeC": 2.2,
      "bazaYC": 10.09090909090909,
      "yaMin": 22,
      "spdYa": 40.969090909090916,
      "spdTT": 42.0402837997635,
      "notes": "Центр → Ждановичи (СЗ за МКАД). Эконом ⚡20.1, Cmf 22.2, Эл 23.7, К+ 25 (срез)."
    },
    {
      "id": "9984",
      "sourceFile": "2026-04-26-1547.results.json",
      "date": "2026-04-26",
      "day": "sunday",
      "hour": 15,
      "slot": "h15",
      "fromAddr": "Немига 3",
      "fromLat": 53.90402,
      "fromLng": 27.55239,
      "toAddr": "Городской Вал 12к2",
      "toLat": 53.89975,
      "toLng": 27.55131,
      "km": 2.5490999999999997,
      "min": 4.464169611307421,
      "freeMin": 4.386666666666667,
      "ttMult": 1.0176678445229683,
      "factC": 7.7,
      "factE": 6,
      "sC": 0.77,
      "sE": 0.6666666666666666,
      "hb": 0.8658008658008657,
      "yaSurgeC": 0.8,
      "bazaYC": 9.625,
      "yaMin": 8,
      "spdYa": 19.118249999999996,
      "spdTT": 34.260795022796344,
      "notes": "Центр → центр (Городской Вал, ~1 км). Очень короткая поездка, цена ниже минималки 10₽: Cmf=7.7, sC=0.77 (для коротких min не floor). Эконом ⚡6, Эл 9.4, К+ 8.4 (срез)."
    },
    {
      "id": "9985",
      "sourceFile": "2026-04-26-1547.results.json",
      "date": "2026-04-26",
      "day": "sunday",
      "hour": 15,
      "slot": "h15",
      "fromAddr": "Немига 3",
      "fromLat": 53.90402,
      "fromLng": 27.55239,
      "toAddr": "Лейтенанта Кижеватова 7к2",
      "toLat": 53.86739,
      "toLng": 27.52745,
      "km": 5.9758000000000004,
      "min": 9.503309352517986,
      "freeMin": 9.173333333333334,
      "ttMult": 1.0359712230215827,
      "factC": 13.3,
      "factE": 12,
      "sC": 1.33,
      "sE": 1.3333333333333333,
      "hb": 1.0025062656641603,
      "yaSurgeC": 1.3,
      "bazaYC": 10.230769230769232,
      "yaMin": 16,
      "spdYa": 22.40925,
      "spdTT": 37.728751816860466,
      "notes": "Центр → ЮЗ (Октябрьский, Кижеватова). Эконом ⚡12, Cmf 13.3, Эл 14.2, К+ 14.3 (срез)."
    },
    {
      "id": "9986",
      "sourceFile": "2026-04-26-1547.results.json",
      "date": "2026-04-26",
      "day": "sunday",
      "hour": 15,
      "slot": "h15",
      "fromAddr": "Немига 3",
      "fromLat": 53.90402,
      "fromLng": 27.55239,
      "toAddr": "деревня Валерьяново",
      "toLat": 53.96691,
      "toLng": 27.66554,
      "km": 11.6415,
      "min": 16.39119047619048,
      "freeMin": 16.01,
      "ttMult": 1.023809523809524,
      "factC": 19.9,
      "factE": 18.3,
      "sC": 1.9899999999999998,
      "sE": 2.033333333333333,
      "hb": 1.0217755443886098,
      "yaSurgeC": 2,
      "bazaYC": 9.95,
      "yaMin": 22,
      "spdYa": 31.74954545454546,
      "spdTT": 42.61374431677875,
      "notes": "Центр → СВ за МКАД (Валерьяново под Боровлянами). Эконом ⚡18.3, Cmf 19.9, Эл 20.3, К+ 21.2 (срез)."
    },
    {
      "id": "9987",
      "sourceFile": "2026-04-26-1547.results.json",
      "date": "2026-04-26",
      "day": "sunday",
      "hour": 15,
      "slot": "h15",
      "fromAddr": "Немига 3",
      "fromLat": 53.90402,
      "fromLng": 27.55239,
      "toAddr": "агрогородок Морочь",
      "toLat": 53.02678,
      "toLng": 27.55236,
      "km": 103.48780000000001,
      "min": 90.705,
      "freeMin": 90.705,
      "ttMult": 1,
      "factC": 315.7,
      "factE": 286.7,
      "sC": 31.57,
      "sE": 31.855555555555554,
      "hb": 1.0090451553866187,
      "yaSurgeC": 31.6,
      "bazaYC": 9.990506329113924,
      "yaMin": 134,
      "spdYa": 46.33782089552239,
      "spdTT": 68.45563089135109,
      "notes": "Центр → Морочь (Случкий р-н, ~150 км Ю). Дальняя загородная outlier. Эконом ⚡286.7, Cmf 315.7, Эл 319.1, К+ 355.1, Биз 537.7."
    },
    {
      "id": "9988",
      "sourceFile": "2026-04-26-1547.results.json",
      "date": "2026-04-26",
      "day": "sunday",
      "hour": 15,
      "slot": "h15",
      "fromAddr": "Немига 3",
      "fromLat": 53.90402,
      "fromLng": 27.55239,
      "toAddr": "Юность база отдыха",
      "toLat": 53.97,
      "toLng": 27.45,
      "km": 15.723700000000001,
      "min": 21.20138888888889,
      "freeMin": 20.708333333333332,
      "ttMult": 1.023809523809524,
      "factC": 36.3,
      "factE": 32.7,
      "sC": 3.63,
      "sE": 3.6333333333333337,
      "hb": 1.0009182736455464,
      "yaSurgeC": 3.6,
      "bazaYC": 10.083333333333332,
      "yaMin": 24,
      "spdYa": 39.309250000000006,
      "spdTT": 44.4981225024566,
      "notes": "Центр → Заславское вдхр (Юность, ~22 км). Эконом ⚡32.7, Cmf 36.3, Эл 36.7, К+ 38.3 (срез). Координаты POI поставлены вручную (TomTom не нашёл). sC=3.6 — высокий, проверка плато."
    },
    {
      "id": "9989",
      "sourceFile": "2026-04-26-1547.results.json",
      "date": "2026-04-26",
      "day": "sunday",
      "hour": 15,
      "slot": "h15",
      "fromAddr": "Немига 3",
      "fromLat": 53.90402,
      "fromLng": 27.55239,
      "toAddr": "Измайловская 29",
      "toLat": 53.94104,
      "toLng": 27.58358,
      "km": 5.1218,
      "min": 7.709285714285715,
      "freeMin": 7.53,
      "ttMult": 1.023809523809524,
      "factC": 13.3,
      "factE": 11.6,
      "sC": 1.33,
      "sE": 1.2888888888888888,
      "hb": 0.9690893901420216,
      "yaSurgeC": 1.3,
      "bazaYC": 10.230769230769232,
      "yaMin": 10,
      "spdYa": 30.730800000000006,
      "spdTT": 39.862058741777076,
      "notes": "Центр → Советский (Измайловская, северный спутник). Эконом ⚡11.6, Cmf 13.3, Эл 13.5, К+ 14 (срез)."
    },
    {
      "id": "9990",
      "sourceFile": "2026-04-26-1547.results.json",
      "date": "2026-04-26",
      "day": "sunday",
      "hour": 15,
      "slot": "h15",
      "fromAddr": "Немига 3",
      "fromLat": 53.90402,
      "fromLng": 27.55239,
      "toAddr": "Казинца 120",
      "toLat": 53.84261,
      "toLng": 27.50396,
      "km": 9.078,
      "min": 13.86233215547703,
      "freeMin": 13.621666666666666,
      "ttMult": 1.017667844522968,
      "factC": 17.6,
      "factE": 15.6,
      "sC": 1.7600000000000002,
      "sE": 1.7333333333333334,
      "hb": 0.9848484848484848,
      "yaSurgeC": 1.8,
      "bazaYC": 9.777777777777779,
      "yaMin": 17,
      "spdYa": 32.03999999999999,
      "spdTT": 39.29208980790408,
      "notes": "Центр → Октябрьский Ю (Казинца). Эконом ⚡15.6, Cmf 17.6, Эл 18, К+ 18.7, Биз 23."
    },
    {
      "id": "9991",
      "sourceFile": "2026-04-26-1547.results.json",
      "date": "2026-04-26",
      "day": "sunday",
      "hour": 15,
      "slot": "h15",
      "fromAddr": "Немига 3",
      "fromLat": 53.90402,
      "fromLng": 27.55239,
      "toAddr": "деревня Сутоки",
      "toLat": 54.51013,
      "toLng": 27.59097,
      "km": 80.5125,
      "min": 77.98833333333333,
      "freeMin": 77.98833333333333,
      "ttMult": 1,
      "factC": 109.1,
      "factE": 98.7,
      "sC": 10.91,
      "sE": 10.966666666666667,
      "hb": 1.0051940116101437,
      "yaSurgeC": 10.9,
      "bazaYC": 10.009174311926605,
      "yaMin": 55,
      "spdYa": 87.83181818181818,
      "spdTT": 61.941957130340015,
      "notes": "Центр → Сутоки (Логойский р-н, ~70 км СВ через Смолевичи). Дальняя outlier. Эконом ⚡98.7, Cmf 109.1, Эл 110.5, К+ 120.4, Биз 182.3. Координата соседней деревни (Деревно) — TomTom не нашёл точную Сутоки."
    },
    {
      "id": "9992",
      "sourceFile": "2026-04-26-1547.results.json",
      "date": "2026-04-26",
      "day": "sunday",
      "hour": 15,
      "slot": "h15",
      "fromAddr": "Немига 3",
      "fromLat": 53.90402,
      "fromLng": 27.55239,
      "toAddr": "Замчище",
      "toLat": 53.89769,
      "toLng": 27.54942,
      "km": 3.0252,
      "min": 5.576978417266187,
      "freeMin": 5.383333333333334,
      "ttMult": 1.0359712230215827,
      "factC": 9,
      "factE": 8,
      "sC": 0.9,
      "sE": 0.8888888888888888,
      "hb": 0.9876543209876543,
      "yaSurgeC": 1,
      "bazaYC": 9,
      "yaMin": 5,
      "spdYa": 36.3024,
      "spdTT": 32.546656346749224,
      "notes": "Центр → центр (Замчище, ~1 км). Очень короткая. Эконом ⚡8, Cmf 9, Эл 9.2, К+ 9.5, Биз 10. Координата приблизительная (общий центр у Немиги)."
    },
    {
      "id": "9993",
      "sourceFile": "2026-04-26-1547.results.json",
      "date": "2026-04-26",
      "day": "sunday",
      "hour": 15,
      "slot": "h15",
      "fromAddr": "Немига 3",
      "fromLat": 53.90402,
      "fromLng": 27.55239,
      "toAddr": "ДС Дружная",
      "toLat": 53.84,
      "toLng": 27.51,
      "km": 9.770100000000001,
      "min": 15.413333333333332,
      "freeMin": 15.413333333333332,
      "ttMult": 1,
      "factC": 11.1,
      "factE": 9.7,
      "sC": 1.1099999999999999,
      "sE": 1.0777777777777777,
      "hb": 0.9709709709709711,
      "yaSurgeC": 1.1,
      "bazaYC": 10.09090909090909,
      "yaMin": 10,
      "spdYa": 58.62060000000001,
      "spdTT": 38.03239619377163,
      "notes": "Центр → ЮЗ (Курасовщина, ДС Дружная). Эконом ⚡9.7, Cmf 11.1, Эл 11.3, К+ 12, Биз 12.9. Координата POI поставлена вручную."
    },
    {
      "id": "9994",
      "sourceFile": "2026-04-26-1547.results.json",
      "date": "2026-04-26",
      "day": "sunday",
      "hour": 15,
      "slot": "h15",
      "fromAddr": "Жуковского 16",
      "fromLat": 53.87509,
      "fromLng": 27.54775,
      "toAddr": "Ёж-кафе",
      "toLat": 53.905,
      "toLng": 27.56,
      "km": 5.2124,
      "min": 8.60807782623281,
      "freeMin": 8.288333333333334,
      "ttMult": 1.038577658503858,
      "factC": 12.2,
      "factE": 11,
      "sC": 1.22,
      "sE": 1.2222222222222223,
      "hb": 1.0018214936247725,
      "yaSurgeC": 1.2,
      "bazaYC": 10.166666666666666,
      "yaMin": 11,
      "spdYa": 28.431272727272724,
      "spdTT": 36.33145590841707,
      "notes": "ЮЗ → центр (Кальварийская слобода, Ёж-кафе). Эконом ⚡11, Cmf 12.2, Эл 12.5, К+ 13, Биз 15.9. Координата POI приблизительная."
    },
    {
      "id": "9995",
      "sourceFile": "2026-04-26-1547.results.json",
      "date": "2026-04-26",
      "day": "sunday",
      "hour": 15,
      "slot": "h15",
      "fromAddr": "Немига 3",
      "fromLat": 53.90402,
      "fromLng": 27.55239,
      "toAddr": "Грушевка",
      "toLat": 53.876,
      "toLng": 27.518,
      "km": 5.6052,
      "min": 8.86948905109489,
      "freeMin": 8.438333333333334,
      "ttMult": 1.0510948905109487,
      "factC": 10.9,
      "factE": 9.5,
      "sC": 1.09,
      "sE": 1.0555555555555556,
      "hb": 0.9683995922528033,
      "yaSurgeC": 1.1,
      "bazaYC": 9.909090909090908,
      "yaMin": 8,
      "spdYa": 42.039,
      "spdTT": 37.917855026664036,
      "notes": "Центр → Грушевка (метро, ЮЗ). Эконом ⚡9.5, Cmf 10.9, Эл 11.1, К+ 11.8, Биз 12.5."
    },
    {
      "id": "9996",
      "sourceFile": "2026-04-26-1547.results.json",
      "date": "2026-04-26",
      "day": "sunday",
      "hour": 15,
      "slot": "h15",
      "fromAddr": "Немига 3",
      "fromLat": 53.90402,
      "fromLng": 27.55239,
      "toAddr": "Сергея Есенина 76",
      "toLat": 53.8614,
      "toLng": 27.44472,
      "km": 10.3613,
      "min": 15.474705882352941,
      "freeMin": 14.615,
      "ttMult": 1.0588235294117647,
      "factC": 18.2,
      "factE": 16.4,
      "sC": 1.8199999999999998,
      "sE": 1.822222222222222,
      "hb": 1.0012210012210012,
      "yaSurgeC": 1.8,
      "bazaYC": 10.11111111111111,
      "yaMin": 20,
      "spdYa": 31.0839,
      "spdTT": 40.17381685482952,
      "notes": "Центр → Малиновка (Есенина 76). Эконом ⚡16.4, Cmf 18.2, Эл 18.6, К+ 19.1 (срез). «Чуть пройти» 15.8."
    },
    {
      "id": "9997",
      "sourceFile": "2026-04-26-1547.results.json",
      "date": "2026-04-26",
      "day": "sunday",
      "hour": 15,
      "slot": "h15",
      "fromAddr": "Немига 3",
      "fromLat": 53.90402,
      "fromLng": 27.55239,
      "toAddr": "вокзал Минск",
      "toLat": 53.89096,
      "toLng": 27.55087,
      "km": 3.0824000000000003,
      "min": 4.8,
      "freeMin": 4.8,
      "ttMult": 1,
      "factC": 10.8,
      "factE": 9.6,
      "sC": 1.08,
      "sE": 1.0666666666666667,
      "hb": 0.9876543209876543,
      "yaSurgeC": 1.1,
      "bazaYC": 9.818181818181818,
      "yaMin": 9,
      "spdYa": 20.549333333333333,
      "spdTT": 38.53000000000001,
      "notes": "Центр → вокзал. Эконом ⚡9.6, Cmf 10.8, Эл 11, К+ 11.6, Биз 12.4."
    },
    {
      "id": "9998",
      "sourceFile": "2026-04-26-1547.results.json",
      "date": "2026-04-26",
      "day": "sunday",
      "hour": 15,
      "slot": "h15",
      "fromAddr": "Жуковского 16",
      "fromLat": 53.87509,
      "fromLng": 27.54775,
      "toAddr": "Зыбицкая 6",
      "toLat": 53.9063,
      "toLng": 27.5577,
      "km": 5.447,
      "min": 8.66408602150538,
      "freeMin": 8.393333333333334,
      "ttMult": 1.0322580645161292,
      "factC": 13.9,
      "factE": 12.5,
      "sC": 1.3900000000000001,
      "sE": 1.3888888888888888,
      "hb": 0.9992006394884091,
      "yaSurgeC": 1.4,
      "bazaYC": 9.928571428571429,
      "yaMin": 15,
      "spdYa": 21.788,
      "spdTT": 37.72123212867354,
      "notes": "ЮЗ → центр (Зыбицкая). Эконом ⚡12.5, Cmf 13.9, Эл 14.2, К+ 15, Биз 18.1."
    },
    {
      "id": "9999",
      "sourceFile": "2026-04-26-1547.results.json",
      "date": "2026-04-26",
      "day": "sunday",
      "hour": 15,
      "slot": "h15",
      "fromAddr": "Немига 3",
      "fromLat": 53.90402,
      "fromLng": 27.55239,
      "toAddr": "Ёж-кафе",
      "toLat": 53.905,
      "toLng": 27.56,
      "km": 1.6878,
      "min": 4.2026068376068375,
      "freeMin": 3.8116666666666665,
      "ttMult": 1.1025641025641026,
      "factC": 8.9,
      "factE": 7.9,
      "sC": 0.89,
      "sE": 0.8777777777777778,
      "hb": 0.9862671660424469,
      "yaSurgeC": 1,
      "bazaYC": 8.9,
      "yaMin": 7,
      "spdYa": 14.466857142857142,
      "spdTT": 24.09647247841694,
      "notes": "Центр → центр (Ёж-кафе, восточнее Немиги). Эконом ⚡7.9, Cmf 8.9, Эл 9.1, К+ 9.5, Биз 10.4. Очень короткая."
    },
    {
      "id": "0001",
      "sourceFile": "2026-04-26-1547.results.json",
      "date": "2026-04-26",
      "day": "sunday",
      "hour": 15,
      "slot": "h15",
      "fromAddr": "Жуковского 16",
      "fromLat": 53.87509,
      "fromLng": 27.54775,
      "toAddr": "Интернациональная 25А",
      "toLat": 53.90405,
      "toLng": 27.55874,
      "km": 4.9848,
      "min": 8.016088560885612,
      "freeMin": 7.718333333333334,
      "ttMult": 1.038577658503858,
      "factC": 14.6,
      "factE": 13.1,
      "sC": 1.46,
      "sE": 1.4555555555555555,
      "hb": 0.9969558599695586,
      "yaSurgeC": 1.5,
      "bazaYC": 9.733333333333333,
      "yaMin": 15,
      "spdYa": 19.9392,
      "spdTT": 37.31096503341986,
      "notes": "ЮЗ → центр (Интернациональная). Эконом ⚡13.1, Cmf 14.6, Эл 14.9, К+ 15.7."
    },
    {
      "id": "0002",
      "sourceFile": "2026-04-26-1547.results.json",
      "date": "2026-04-26",
      "day": "sunday",
      "hour": 15,
      "slot": "h15",
      "fromAddr": "Жуковского 16",
      "fromLat": 53.87509,
      "fromLng": 27.54775,
      "toAddr": "Комаровский рынок",
      "toLat": 53.91954,
      "toLng": 27.57722,
      "km": 7.708600000000001,
      "min": 12.316666666666666,
      "freeMin": 12.316666666666666,
      "ttMult": 1,
      "factC": 16.5,
      "factE": 14.7,
      "sC": 1.65,
      "sE": 1.6333333333333333,
      "hb": 0.98989898989899,
      "yaSurgeC": 1.7,
      "bazaYC": 9.705882352941178,
      "yaMin": 16,
      "spdYa": 28.90725,
      "spdTT": 37.55204330175914,
      "notes": "ЮЗ → С (Комаровка). Эконом ⚡14.7, Cmf 16.5, Эл 16.8, К+ 17.3."
    },
    {
      "id": "0003",
      "sourceFile": "2026-04-26-1547.results.json",
      "date": "2026-04-26",
      "day": "sunday",
      "hour": 15,
      "slot": "h15",
      "fromAddr": "Жуковского 16",
      "fromLat": 53.87509,
      "fromLng": 27.54775,
      "toAddr": "Лодэ Гикало 1",
      "toLat": 53.91651,
      "toLng": 27.58697,
      "km": 7.5088,
      "min": 11.093333333333334,
      "freeMin": 11.093333333333334,
      "ttMult": 1,
      "factC": 16.1,
      "factE": 14.4,
      "sC": 1.61,
      "sE": 1.6,
      "hb": 0.9937888198757764,
      "yaSurgeC": 1.6,
      "bazaYC": 10.0625,
      "yaMin": 14,
      "spdYa": 32.180571428571426,
      "spdTT": 40.6125,
      "notes": "ЮЗ → С (Лодэ медцентр на Гикало 1, Советский р-н). Эконом ⚡14.4, Cmf 16.1, Эл 16.4, К+ 17.4."
    },
    {
      "id": "0004",
      "sourceFile": "2026-04-26-1547.results.json",
      "date": "2026-04-26",
      "day": "sunday",
      "hour": 15,
      "slot": "h15",
      "fromAddr": "Жуковского 16",
      "fromLat": 53.87509,
      "fromLng": 27.54775,
      "toAddr": "Момо",
      "toLat": 53.88,
      "toLng": 27.65,
      "km": 9.3348,
      "min": 14.953513513513514,
      "freeMin": 14.186666666666667,
      "ttMult": 1.054054054054054,
      "factC": 18.3,
      "factE": 16.3,
      "sC": 1.83,
      "sE": 1.8111111111111111,
      "hb": 0.9896782027929568,
      "yaSurgeC": 1.8,
      "bazaYC": 10.166666666666666,
      "yaMin": 16,
      "spdYa": 35.0055,
      "spdTT": 37.45527761711972,
      "notes": "ЮЗ → В (МКАД-Восток, Большой Тростенец, ресторан Момо). Эконом ⚡16.3, Cmf 18.3, Эл 18.6, К+ 19.4, Биз 23.3. Координата приблизительная."
    },
    {
      "id": "0005",
      "sourceFile": "2026-04-26-1547.results.json",
      "date": "2026-04-26",
      "day": "sunday",
      "hour": 15,
      "slot": "h15",
      "fromAddr": "Жуковского 16",
      "fromLat": 53.87509,
      "fromLng": 27.54775,
      "toAddr": "Пицца Йоло Машерова",
      "toLat": 53.918,
      "toLng": 27.555,
      "km": 7.292,
      "min": 10.543333333333333,
      "freeMin": 10.543333333333333,
      "ttMult": 1,
      "factC": 16.4,
      "factE": 14.7,
      "sC": 1.64,
      "sE": 1.6333333333333333,
      "hb": 0.9959349593495935,
      "yaSurgeC": 1.6,
      "bazaYC": 10.249999999999998,
      "yaMin": 16,
      "spdYa": 27.345,
      "spdTT": 41.49731267783749,
      "notes": "ЮЗ → С (Пицца Йоло на Машерова, Советский р-н). Эконом ⚡14.7, Cmf 16.4, Эл 16.8, К+ 17.3. Координата приблизительная."
    },
    {
      "id": "0006",
      "sourceFile": "2026-04-26-1547.results.json",
      "date": "2026-04-26",
      "day": "sunday",
      "hour": 15,
      "slot": "h15",
      "fromAddr": "Жуковского 16",
      "fromLat": 53.87509,
      "fromLng": 27.54775,
      "toAddr": "Национальная библиотека",
      "toLat": 53.93176,
      "toLng": 27.64574,
      "km": 11.2839,
      "min": 15.49,
      "freeMin": 15.49,
      "ttMult": 1,
      "factC": 19.9,
      "factE": 17.9,
      "sC": 1.9899999999999998,
      "sE": 1.9888888888888887,
      "hb": 0.9994416527079844,
      "yaSurgeC": 2,
      "bazaYC": 9.95,
      "yaMin": 19,
      "spdYa": 35.63336842105263,
      "spdTT": 43.7078114912847,
      "notes": "ЮЗ → СВ за МКАД (Нац.библиотека, Уручье). Эконом ⚡17.9, Cmf 19.9, Эл 20.3, К+ 20.9."
    },
    {
      "id": "0007",
      "sourceFile": "2026-04-26-1547.results.json",
      "date": "2026-04-26",
      "day": "sunday",
      "hour": 15,
      "slot": "h15",
      "fromAddr": "Кальварийская 33",
      "fromLat": 53.90718,
      "fromLng": 27.51343,
      "toAddr": "Ренессанс",
      "toLat": 53.89236,
      "toLng": 27.52906,
      "km": 3.8196,
      "min": 7.008333333333334,
      "freeMin": 7.008333333333334,
      "ttMult": 1,
      "factC": 9.8,
      "factE": 8.6,
      "sC": 0.9800000000000001,
      "sE": 0.9555555555555555,
      "hb": 0.9750566893424034,
      "yaSurgeC": 1,
      "bazaYC": 9.8,
      "yaMin": 7,
      "spdYa": 32.73942857142857,
      "spdTT": 32.70049940546967,
      "notes": "СЗ → центр (отель Renaissance, Машерова 17). Эконом ⚡8.6, Cmf 9.8, Эл 11, К+ 10.6, Биз 11.5."
    },
    {
      "id": "0008",
      "sourceFile": "2026-04-26-1547.results.json",
      "date": "2026-04-26",
      "day": "sunday",
      "hour": 15,
      "slot": "h15",
      "fromAddr": "Жуковского 16",
      "fromLat": 53.87509,
      "fromLng": 27.54775,
      "toAddr": "Плеханова 52к1",
      "toLat": 53.86157,
      "toLng": 27.59643,
      "km": 6.3332,
      "min": 9.441666666666666,
      "freeMin": 9.441666666666666,
      "ttMult": 1,
      "factC": 14.3,
      "factE": 12.9,
      "sC": 1.4300000000000002,
      "sE": 1.4333333333333333,
      "hb": 1.0023310023310021,
      "yaSurgeC": 1.4,
      "bazaYC": 10.214285714285715,
      "yaMin": 12,
      "spdYa": 31.665999999999997,
      "spdTT": 40.24628420123565,
      "notes": "ЮЗ → ЮВ (Плеханова, Заводской р-н). Эконом ⚡12.9, Cmf 14.3, Эл 14.6, К+ 15.3, Биз 17.8."
    },
    {
      "id": "0009",
      "sourceFile": "2026-04-26-1547.results.json",
      "date": "2026-04-26",
      "day": "sunday",
      "hour": 15,
      "slot": "h15",
      "fromAddr": "Кальварийская 33",
      "fromLat": 53.90718,
      "fromLng": 27.51343,
      "toAddr": "Уманская 54",
      "toLat": 53.87471,
      "toLng": 27.4985,
      "km": 5.3713,
      "min": 9.512442996742669,
      "freeMin": 9.013333333333332,
      "ttMult": 1.0553745928338762,
      "factC": 11.7,
      "factE": 10.6,
      "sC": 1.17,
      "sE": 1.1777777777777778,
      "hb": 1.0066476733143401,
      "yaSurgeC": 1.2,
      "bazaYC": 9.75,
      "yaMin": 10,
      "spdYa": 32.2278,
      "spdTT": 33.87962483563446,
      "notes": "СЗ → ЮЗ (Михалово, Уманская). Эконом ⚡10.6, Cmf 11.7, Эл 13.4, К+ 12.3, Биз 14.8."
    },
    {
      "id": "0010",
      "sourceFile": "2026-04-26-1547.results.json",
      "date": "2026-04-26",
      "day": "sunday",
      "hour": 15,
      "slot": "h15",
      "fromAddr": "Кальварийская 33",
      "fromLat": 53.90718,
      "fromLng": 27.51343,
      "toAddr": "Титан",
      "toLat": 53.86177,
      "toLng": 27.48014,
      "km": 6.6966,
      "min": 11.442061855670103,
      "freeMin": 10.276666666666667,
      "ttMult": 1.11340206185567,
      "factC": 14.1,
      "factE": 12.6,
      "sC": 1.41,
      "sE": 1.4,
      "hb": 0.9929078014184397,
      "yaSurgeC": 1.4,
      "bazaYC": 10.071428571428571,
      "yaMin": 12,
      "spdYa": 33.483000000000004,
      "spdTT": 35.115698994485896,
      "notes": "СЗ → ЮЗ (ТЦ Титан, Малиновка). Эконом ⚡12.6, Cmf 14.1, Эл 15.4, К+ 15.2, Биз 18.5."
    },
    {
      "id": "0011",
      "sourceFile": "2026-04-26-1547.results.json",
      "date": "2026-04-26",
      "day": "sunday",
      "hour": 15,
      "slot": "h15",
      "fromAddr": "Кальварийская 33",
      "fromLat": 53.90718,
      "fromLng": 27.51343,
      "toAddr": "Слуцкий гостинец",
      "toLat": 53.835,
      "toLng": 27.555,
      "km": 11.1164,
      "min": 15.525,
      "freeMin": 15.525,
      "ttMult": 1,
      "factC": 17.5,
      "factE": 15.5,
      "sC": 1.75,
      "sE": 1.7222222222222223,
      "hb": 0.9841269841269842,
      "yaSurgeC": 1.8,
      "bazaYC": 9.722222222222221,
      "yaMin": 16,
      "spdYa": 41.6865,
      "spdTT": 42.96193236714976,
      "notes": "СЗ → Ю (Сеница/Юбилейный, Слуцкий гостинец). Эконом ⚡15.5, Cmf 17.5, Эл 18.9, К+ 18.7, Биз 23.7. Координата POI приблизительная."
    },
    {
      "id": "0012",
      "sourceFile": "2026-04-26-1547.results.json",
      "date": "2026-04-26",
      "day": "sunday",
      "hour": 15,
      "slot": "h15",
      "fromAddr": "Кальварийская 33",
      "fromLat": 53.90718,
      "fromLng": 27.51343,
      "toAddr": "Фаниполь",
      "toLat": 53.73967,
      "toLng": 27.31585,
      "km": 26.4636,
      "min": 25.864526484751206,
      "freeMin": 24.866666666666667,
      "ttMult": 1.0401284109149278,
      "factC": 51.6,
      "factE": 41.7,
      "sC": 5.16,
      "sE": 4.633333333333334,
      "hb": 0.8979328165374677,
      "yaSurgeC": 5.2,
      "bazaYC": 9.923076923076923,
      "yaMin": 29,
      "spdYa": 54.75227586206897,
      "spdTT": 61.38971849865952,
      "notes": "СЗ → ЮЗ за МКАД (Фаниполь, ~25 км). Дальняя загородная. Эконом ⚡41.7, Cmf 51.6, Эл 54.3, К+ 54.3, Биз 79.1."
    },
    {
      "id": "0013",
      "sourceFile": "2026-04-26-1547.results.json",
      "date": "2026-04-26",
      "day": "sunday",
      "hour": 15,
      "slot": "h15",
      "fromAddr": "Жуковского 16",
      "fromLat": 53.87509,
      "fromLng": 27.54775,
      "toAddr": "Ома Тимирязева",
      "toLat": 53.906,
      "toLng": 27.533,
      "km": 5.2292,
      "min": 8.439428571428573,
      "freeMin": 8.205,
      "ttMult": 1.0285714285714287,
      "factC": 12.7,
      "factE": 11.2,
      "sC": 1.27,
      "sE": 1.2444444444444445,
      "hb": 0.9798775153105862,
      "yaSurgeC": 1.3,
      "bazaYC": 9.769230769230768,
      "yaMin": 9,
      "spdYa": 34.861333333333334,
      "spdTT": 37.17692463944748,
      "notes": "ЮЗ → С (гипермаркет ОМА на Тимирязева). Эконом ⚡11.2, Cmf 12.7, Эл 13, К+ 13.8, Биз 14.6."
    },
    {
      "id": "0014",
      "sourceFile": "2026-04-26-1547.results.json",
      "date": "2026-04-26",
      "day": "sunday",
      "hour": 15,
      "slot": "h15",
      "fromAddr": "Кальварийская 33",
      "fromLat": 53.90718,
      "fromLng": 27.51343,
      "toAddr": "Плеханова 52к1",
      "toLat": 53.86157,
      "toLng": 27.59643,
      "km": 10.3508,
      "min": 15.485472747497218,
      "freeMin": 14.873333333333333,
      "ttMult": 1.0411568409343714,
      "factC": 18,
      "factE": 15.8,
      "sC": 1.8,
      "sE": 1.7555555555555555,
      "hb": 0.9753086419753086,
      "yaSurgeC": 1.8,
      "bazaYC": 10,
      "yaMin": 17,
      "spdYa": 36.53223529411764,
      "spdTT": 40.1052011860842,
      "notes": "СЗ → ЮВ диагональ (Кальварийская → Плеханова, через центр). Эконом ⚡15.8, Cmf 18, Эл 19.8, К+ 19.3, Биз 24.6."
    },
    {
      "id": "9900",
      "sourceFile": "2026-04-26-1726.results.json",
      "date": "2026-04-26",
      "day": "sunday",
      "hour": 17,
      "slot": "h17",
      "fromAddr": "Омельянюка 19",
      "fromLat": 53.87559,
      "fromLng": 27.64796,
      "toAddr": "Кольцова 12к1",
      "toLat": 53.95191,
      "toLng": 27.59483,
      "km": 12.0663,
      "min": 17.223333333333336,
      "freeMin": 17.223333333333336,
      "ttMult": 1,
      "factC": 23.8,
      "factE": 21.3,
      "sC": 2.38,
      "sE": 2.3666666666666667,
      "hb": 0.9943977591036415,
      "yaSurgeC": null,
      "bazaYC": null,
      "yaMin": 21,
      "spdYa": 34.475142857142856,
      "spdTT": 42.034720340623174,
      "notes": "Восток-Север диагональ. ⚡ Эконома открытое (значок без числа), Cmf surge скрыт. Открытые: Электро 2.5, К+ 2.6, Биз 3.6."
    },
    {
      "id": "9901",
      "sourceFile": "2026-04-26-1726.results.json",
      "date": "2026-04-26",
      "day": "sunday",
      "hour": 17,
      "slot": "h17",
      "fromAddr": "Омельянюка 19",
      "fromLat": 53.87559,
      "fromLng": 27.64796,
      "toAddr": "Каменногорская 100А",
      "toLat": 53.932,
      "toLng": 27.43101,
      "km": 19.5482,
      "min": 27.543333333333333,
      "freeMin": 27.543333333333333,
      "ttMult": 1,
      "factC": 34.8,
      "factE": 31.5,
      "sC": 3.4799999999999995,
      "sE": 3.5,
      "hb": 1.0057471264367817,
      "yaSurgeC": null,
      "bazaYC": null,
      "yaMin": 35,
      "spdYa": 33.5112,
      "spdTT": 42.583516882488205,
      "notes": "Восток-Запад через весь Минск. Cmf surge скрыт. Электро 3.6, К+ 3.7, Биз 5.2."
    },
    {
      "id": "9902",
      "sourceFile": "2026-04-26-1726.results.json",
      "date": "2026-04-26",
      "day": "sunday",
      "hour": 17,
      "slot": "h17",
      "fromAddr": "Омельянюка 19",
      "fromLat": 53.87559,
      "fromLng": 27.64796,
      "toAddr": "пр. Дзержинского 16",
      "toLat": 53.89085,
      "toLng": 27.5231,
      "km": 11.1485,
      "min": 15.795,
      "freeMin": 15.795,
      "ttMult": 1,
      "factC": 21.5,
      "factE": 19.4,
      "sC": 2.15,
      "sE": 2.1555555555555554,
      "hb": 1.0025839793281655,
      "yaSurgeC": null,
      "bazaYC": null,
      "yaMin": 17,
      "spdYa": 39.34764705882353,
      "spdTT": 42.34947768281102,
      "notes": "Восток-Юго-Запад. Cmf surge скрыт. Электро 2.2, К+ 2.3, Биз 3.3."
    },
    {
      "id": "9903",
      "sourceFile": "2026-04-26-1726.results.json",
      "date": "2026-04-26",
      "day": "sunday",
      "hour": 17,
      "slot": "h17",
      "fromAddr": "Омельянюка 19",
      "fromLat": 53.87559,
      "fromLng": 27.64796,
      "toAddr": "Максима Богдановича 1М",
      "toLat": 53.90767,
      "toLng": 27.5561,
      "km": 9.8801,
      "min": 14.961992882562274,
      "freeMin": 14.598333333333333,
      "ttMult": 1.0249110320284696,
      "factC": 20.7,
      "factE": 18.7,
      "sC": 2.07,
      "sE": 2.0777777777777775,
      "hb": 1.0037573805689748,
      "yaSurgeC": 2.1,
      "bazaYC": 9.857142857142856,
      "yaMin": 17,
      "spdYa": 34.87094117647059,
      "spdTT": 39.6207914716292,
      "notes": "Восток-Центр. Cmf ⚡2.1 ОТКРЫТ. Электро 2.1, К+ 2.4, Биз 3.1."
    },
    {
      "id": "9904",
      "sourceFile": "2026-04-26-1726.results.json",
      "date": "2026-04-26",
      "day": "sunday",
      "hour": 17,
      "slot": "h17",
      "fromAddr": "Омельянюка 19",
      "fromLat": 53.87559,
      "fromLng": 27.64796,
      "toAddr": "Притыцкого 23",
      "toLat": 53.90856,
      "toLng": 27.49259,
      "km": 13.869,
      "min": 19.600563380281688,
      "freeMin": 19.328333333333333,
      "ttMult": 1.0140845070422535,
      "factC": 27.6,
      "factE": 24.9,
      "sC": 2.7600000000000002,
      "sE": 2.7666666666666666,
      "hb": 1.0024154589371979,
      "yaSurgeC": 2.8,
      "bazaYC": 9.857142857142858,
      "yaMin": 25,
      "spdYa": 33.2856,
      "spdTT": 42.454902129861175,
      "notes": "Восток-Запад. Cmf ⚡2.8 ОТКРЫТ. Электро 2.9, К+ 3.1, Биз 3.9."
    },
    {
      "id": "9905",
      "sourceFile": "2026-04-26-1726.results.json",
      "date": "2026-04-26",
      "day": "sunday",
      "hour": 17,
      "slot": "h17",
      "fromAddr": "Омельянюка 19",
      "fromLat": 53.87559,
      "fromLng": 27.64796,
      "toAddr": "пр. Победителей 49",
      "toLat": 53.9171,
      "toLng": 27.53302,
      "km": 11.412600000000001,
      "min": 17.644333333333336,
      "freeMin": 16.413333333333334,
      "ttMult": 1.0750000000000002,
      "factC": 23.4,
      "factE": 20.5,
      "sC": 2.34,
      "sE": 2.2777777777777777,
      "hb": 0.9734093067426401,
      "yaSurgeC": 2.4,
      "bazaYC": 9.75,
      "yaMin": 20,
      "spdYa": 34.23780000000001,
      "spdTT": 38.80883380877713,
      "notes": "Восток-Северо-Запад. Cmf ⚡2.4 ОТКРЫТ. Электро 2.4, К+ 2.6, Биз 3.1."
    },
    {
      "id": "9906",
      "sourceFile": "2026-04-26-1726.results.json",
      "date": "2026-04-26",
      "day": "sunday",
      "hour": 17,
      "slot": "h17",
      "fromAddr": "Омельянюка 19",
      "fromLat": 53.87559,
      "fromLng": 27.64796,
      "toAddr": "Аэрофлотская 9",
      "toLat": 53.86291,
      "toLng": 27.53101,
      "km": 10.158,
      "min": 15.177391304347825,
      "freeMin": 14.545,
      "ttMult": 1.0434782608695652,
      "factC": 22.7,
      "factE": 20,
      "sC": 2.27,
      "sE": 2.2222222222222223,
      "hb": 0.9789525208027411,
      "yaSurgeC": 2.3,
      "bazaYC": 9.869565217391305,
      "yaMin": 19,
      "spdYa": 32.0778947368421,
      "spdTT": 40.1570986593331,
      "notes": "Восток-Юго-Запад. Cmf ⚡2.3 ОТКРЫТ. Электро 2.3, К+ 2.6, Биз 3.0."
    },
    {
      "id": "9907",
      "sourceFile": "2026-04-26-1726.results.json",
      "date": "2026-04-26",
      "day": "sunday",
      "hour": 17,
      "slot": "h17",
      "fromAddr": "Михася Лынькова 111Е",
      "fromLat": 53.92754,
      "fromLng": 27.4912,
      "toAddr": "Аэрофлотская 9",
      "toLat": 53.86291,
      "toLng": 27.53101,
      "km": 9.6492,
      "min": 13.479999999999999,
      "freeMin": 13.479999999999999,
      "ttMult": 1,
      "factC": 20.7,
      "factE": 18.5,
      "sC": 2.07,
      "sE": 2.0555555555555554,
      "hb": 0.9930220075147611,
      "yaSurgeC": null,
      "bazaYC": null,
      "yaMin": 17,
      "spdYa": 34.056,
      "spdTT": 42.94896142433235,
      "notes": "Северо-Запад → Юг. Cmf surge скрыт. К+ 2.2."
    },
    {
      "id": "9908",
      "sourceFile": "2026-04-26-1726.results.json",
      "date": "2026-04-26",
      "day": "sunday",
      "hour": 17,
      "slot": "h17",
      "fromAddr": "Старовиленский тракт 41",
      "fromLat": 53.92457,
      "fromLng": 27.5438,
      "toAddr": "Аэрофлотская 9",
      "toLat": 53.86291,
      "toLng": 27.53101,
      "km": 8.2713,
      "min": 14.623583333333332,
      "freeMin": 13.603333333333333,
      "ttMult": 1.075,
      "factC": 20.4,
      "factE": 18.3,
      "sC": 2.04,
      "sE": 2.033333333333333,
      "hb": 0.9967320261437908,
      "yaSurgeC": 2.1,
      "bazaYC": 9.714285714285714,
      "yaMin": 20,
      "spdYa": 24.8139,
      "spdTT": 33.93682578939271,
      "notes": "Север → Юг через центр. Cmf ⚡2.1 ОТКРЫТ. Электро 2.1, К+ 2.2, Биз 2.5."
    },
    {
      "id": "9909",
      "sourceFile": "2026-04-26-1726.results.json",
      "date": "2026-04-26",
      "day": "sunday",
      "hour": 17,
      "slot": "h17",
      "fromAddr": "Сергея Есенина 42",
      "fromLat": 53.85227,
      "fromLng": 27.45244,
      "toAddr": "Аэрофлотская 9",
      "toLat": 53.86291,
      "toLng": 27.53101,
      "km": 9.4594,
      "min": 12.975331230283913,
      "freeMin": 12.695,
      "ttMult": 1.0220820189274449,
      "factC": 18,
      "factE": 18.3,
      "sC": 1.8,
      "sE": 2.033333333333333,
      "hb": 1.1296296296296295,
      "yaSurgeC": 2.1,
      "bazaYC": 8.571428571428571,
      "yaMin": 16,
      "spdYa": 35.472750000000005,
      "spdTT": 43.7417735182997,
      "notes": "ЮЗ → Юг. Cmf ⚡2.1 ОТКРЫТ. ВНИМАНИЕ: factC < factE — Cmf дешевле Эконома (значит у Эконома surge скрытый > 2.1). Электро 2.1, К+ 2.2, Биз 2.5."
    },
    {
      "id": "9910",
      "sourceFile": "2026-04-26-1726.results.json",
      "date": "2026-04-26",
      "day": "sunday",
      "hour": 17,
      "slot": "h17",
      "fromAddr": "Сергея Есенина 42",
      "fromLat": 53.85227,
      "fromLng": 27.45244,
      "toAddr": "Ленина 3",
      "toLat": 53.90229,
      "toLng": 27.55721,
      "km": 11.094,
      "min": 14.983333333333333,
      "freeMin": 14.983333333333333,
      "ttMult": 1,
      "factC": 18.9,
      "factE": 19.1,
      "sC": 1.89,
      "sE": 2.1222222222222222,
      "hb": 1.1228689006466785,
      "yaSurgeC": 1.9,
      "bazaYC": 9.947368421052632,
      "yaMin": 20,
      "spdYa": 33.282,
      "spdTT": 44.425361512791994,
      "notes": "ЮЗ → Центр. Cmf ⚡1.9 ОТКРЫТ. ВНИМАНИЕ: factC < factE. Электро 2.1, К+ 2.0, Биз 2.7."
    },
    {
      "id": "9911",
      "sourceFile": "2026-04-26-1755.results.json",
      "date": "2026-04-26",
      "day": "sunday",
      "hour": 17,
      "slot": "h17",
      "fromAddr": "Максима Богдановича 70",
      "fromLat": 53.92411,
      "fromLng": 27.57062,
      "toAddr": "Притыцкого 156",
      "toLat": 53.90868,
      "toLng": 27.43348,
      "km": 11.6201,
      "min": 17.201666666666664,
      "freeMin": 17.201666666666664,
      "ttMult": 1,
      "factC": 15.6,
      "factE": 12.6,
      "sC": 1.56,
      "sE": 1.4,
      "hb": 0.8974358974358974,
      "yaSurgeC": 1.6,
      "bazaYC": 9.75,
      "yaMin": 20,
      "spdYa": 34.8603,
      "spdTT": 40.53130510609438,
      "notes": "СВ центр → Запад Каменная Горка через весь город. Cmf ⚡1.6 ОТКРЫТ. Электро 1.7, К+ 1.9, Биз 2.9. Эконом ⚡ скрыт (factE=12.6)."
    },
    {
      "id": "9912",
      "sourceFile": "2026-04-26-1755.results.json",
      "date": "2026-04-26",
      "day": "sunday",
      "hour": 17,
      "slot": "h17",
      "fromAddr": "Сурганова 60к1",
      "fromLat": 53.92902,
      "fromLng": 27.58311,
      "toAddr": "Партизанский пр. 150",
      "toLat": 53.86021,
      "toLng": 27.67377,
      "km": 11.3947,
      "min": 16.998561151079137,
      "freeMin": 16.408333333333335,
      "ttMult": 1.0359712230215827,
      "factC": 20.7,
      "factE": 15.7,
      "sC": 2.07,
      "sE": 1.7444444444444445,
      "hb": 0.8427267847557703,
      "yaSurgeC": 2.1,
      "bazaYC": 9.857142857142856,
      "yaMin": 26,
      "spdYa": 26.295461538461538,
      "spdTT": 40.21999238191975,
      "notes": "Советский СВ → Заводской ЮВ через Партизанский (длинная диагональ). Cmf ⚡2.1 ОТКРЫТ. Электро 2.3, К+ 2.2, Биз 3.4."
    },
    {
      "id": "9913",
      "sourceFile": "2026-04-26-1755.results.json",
      "date": "2026-04-26",
      "day": "sunday",
      "hour": 17,
      "slot": "h17",
      "fromAddr": "Каменногорская 22",
      "fromLat": 53.91438,
      "fromLng": 27.41973,
      "toAddr": "пр. Независимости 38",
      "toLat": 53.89547,
      "toLng": 27.54875,
      "km": 10.869,
      "min": 16.04862190812721,
      "freeMin": 15.770000000000001,
      "ttMult": 1.017667844522968,
      "factC": 26.5,
      "factE": 23.8,
      "sC": 2.65,
      "sE": 2.6444444444444444,
      "hb": 0.9979035639412998,
      "yaSurgeC": 2.7,
      "bazaYC": 9.814814814814815,
      "yaMin": 24,
      "spdYa": 27.1725,
      "spdTT": 40.63526474318326,
      "notes": "Каменная Горка Запад → центр. Cmf ⚡2.7 ОТКРЫТ — самый высокий surge в пакете. Электро 2.7, К+ 2.8, Биз 3.1."
    },
    {
      "id": "9914",
      "sourceFile": "2026-04-26-1755.results.json",
      "date": "2026-04-26",
      "day": "sunday",
      "hour": 17,
      "slot": "h17",
      "fromAddr": "пр. Независимости 38",
      "fromLat": 53.89547,
      "fromLng": 27.54875,
      "toAddr": "пр. Независимости 168к1",
      "toLat": 53.9355,
      "toLng": 27.6745,
      "km": 11.4873,
      "min": 15.791666666666666,
      "freeMin": 15.791666666666666,
      "ttMult": 1,
      "factC": 12.2,
      "factE": 9.8,
      "sC": 1.22,
      "sE": 1.088888888888889,
      "hb": 0.8925318761384337,
      "yaSurgeC": 1.3,
      "bazaYC": 9.384615384615383,
      "yaMin": 15,
      "spdYa": 45.9492,
      "spdTT": 43.64567810026385,
      "notes": "Центр → Уручье (СВ спальник, конечная M1). Cmf ⚡1.3 ОТКРЫТ — низкий surge на дальний выезд (Я. компенсирует расстояние). Электро 1.4, К+ 1.5, Биз 2.3."
    },
    {
      "id": "9915",
      "sourceFile": "2026-04-26-1755.results.json",
      "date": "2026-04-26",
      "day": "sunday",
      "hour": 17,
      "slot": "h17",
      "fromAddr": "пр. Независимости 38",
      "fromLat": 53.89547,
      "fromLng": 27.54875,
      "toAddr": "пр. Победителей 65",
      "toLat": 53.92649,
      "toLng": 27.5177,
      "km": 5.3353,
      "min": 7.819999999999999,
      "freeMin": 7.819999999999999,
      "ttMult": 1,
      "factC": 10.2,
      "factE": 8.2,
      "sC": 1.02,
      "sE": 0.911111111111111,
      "hb": 0.8932461873638343,
      "yaSurgeC": 1.1,
      "bazaYC": 9.272727272727272,
      "yaMin": 15,
      "spdYa": 21.3412,
      "spdTT": 40.935805626598466,
      "notes": "Центр → СЗ деловой (минимальная цена). Cmf ⚡1.1 ОТКРЫТ — почти baseline. Электро 1.2, К+ 1.3, Биз 1.9."
    },
    {
      "id": "9916",
      "sourceFile": "2026-04-26-1755.results.json",
      "date": "2026-04-26",
      "day": "sunday",
      "hour": 17,
      "slot": "h17",
      "fromAddr": "пр. Независимости 38",
      "fromLat": 53.89547,
      "fromLng": 27.54875,
      "toAddr": "пр. Дзержинского 119",
      "toLat": 53.8498,
      "toLng": 27.47649,
      "km": 8.590399999999999,
      "min": 12.437999999999999,
      "freeMin": 11.516666666666667,
      "ttMult": 1.0799999999999998,
      "factC": 14.9,
      "factE": 12,
      "sC": 1.49,
      "sE": 1.3333333333333333,
      "hb": 0.8948545861297539,
      "yaSurgeC": 1.5,
      "bazaYC": 9.933333333333334,
      "yaMin": 20,
      "spdYa": 25.771199999999997,
      "spdTT": 41.43945972021225,
      "notes": "Центр → ЮЗ спальник Малиновка. Cmf ⚡1.5 ОТКРЫТ. Электро 1.7, К+ 1.8, Биз 2.8."
    },
    {
      "id": "9917",
      "sourceFile": "2026-04-26-1932.results.json",
      "date": "2026-04-26",
      "day": "sunday",
      "hour": 19,
      "slot": "h19",
      "fromAddr": "Максима Богдановича 70",
      "fromLat": 53.92411,
      "fromLng": 27.57062,
      "toAddr": "Слободской пр-д 6",
      "toLat": 53.84949,
      "toLng": 27.44318,
      "km": 14.7987,
      "min": 22.928248081841435,
      "freeMin": 20.123333333333335,
      "ttMult": 1.1393861892583121,
      "factC": 25.5,
      "factE": 22.8,
      "sC": 2.55,
      "sE": 2.533333333333333,
      "hb": 0.9934640522875817,
      "yaSurgeC": 2.6,
      "bazaYC": 9.807692307692307,
      "yaMin": 26,
      "spdYa": 34.15084615384615,
      "spdTT": 38.72611622268737,
      "notes": "ЮВ через центр, прибытие 20:03 (26 мин). Cmf ⚡2.6 ОТКРЫТ. Электро ⚡2.6, К+ ⚡2.7, Биз ⚡3.6. Самый длинный заказ в пакете."
    },